Agent Name,Agent Company,price,Address Line 1,Address Line 2,bed,bath,parking,floor_space,region,latitude,longitude
Kim Te,Motion Property,480.0,"104A/2A Duffy Street,",ESSENDON NORTH VIC 3041,1.0,1.0,1.0,,latrobe-valley-vicwangaratta-vic,-37.7133,144.8969
Queanbeyan Property Management,Blackshaw Queanbeyan & Jerrabomberra,590.0,"226/7 Irving Street,",PHILLIP ACT 2606,1.0,1.0,1.0,,latrobe-valley-vicwangaratta-vic,-35.3396914,149.0842859
Tim Miosge,Cream Residential,400.0,"11b/30 Launceston Street,",LYONS ACT 2606,1.0,1.0,1.0,,latrobe-valley-vicwangaratta-vic,-35.3398343,149.0820314
,,1050.0,"30 Downes Place,",HUGHES ACT 2605,4.0,3.0,2.0,,latrobe-valley-vicwangaratta-vic,-35.3305307,149.1020684
Tim Miosge,Cream Residential,680.0,"74 Launceston Street,",LYONS ACT 2606,3.0,1.0,1.0,,latrobe-valley-vicwangaratta-vic,-35.3398343,149.0820314
Andrew D'Aprano,NICOLE GERVASI PROPERTY GROUP,500.0,"313/8 Webb Road,",AIRPORT WEST VIC 3042,2.0,1.0,1.0,,latrobe-valley-vicwangaratta-vic,-37.7159629,144.8896322
Paul Kerin,EnVogue Property Management,625.0,"5/88 Julia Flynn Avenue,",ISAACS ACT 2607,3.0,2.0,2.0,,latrobe-valley-vicwangaratta-vic,-35.3643084,149.1106254
Paul Kerin,EnVogue Property Management,600.0,"56/26 Marie Little Crescent,",DENMAN PROSPECT ACT 2611,2.0,2.0,2.0,,latrobe-valley-vicwangaratta-vic,-35.302295,149.0322341
Bernadette Clayton,Belle Property Hunter Region,480.0,"15 Armidale Street,",ABERMAIN NSW 2326,2.0,1.0,,,latrobe-valley-vicwangaratta-vic,-32.8058546,151.4252653
Kimberly Castle,AM Property Agency,400.0,"609/220 Melrose Drive,",PHILLIP ACT 2606,1.0,1.0,,,latrobe-valley-vicwangaratta-vic,-35.3368413,149.0858351
Property Management,Blackshaw Woden,740.0,"9/11 Castan Street,",COOMBS ACT 2611,4.0,2.0,2.0,,latrobe-valley-vicwangaratta-vic,-35.317628,149.0425744
Daniel Hatchuel,Performance Asset Management Melbourne,900.0,"58 Argyle Street,",MOONEE PONDS VIC 3039,3.0,2.0,2.0,,latrobe-valley-vicwangaratta-vic,-37.7679089,144.9071296
HomeGround Enquiries,HomeGround Real Estate Canberra,800.0,"15 Shepherd Street,",PEARCE ACT 2607,4.0,2.0,1.0,,latrobe-valley-vicwangaratta-vic,-35.3621994,149.0825945
Leasing Team,LJ Hooker Belconnen,460.0,"2013/120 Eastern Valley Way,",BELCONNEN ACT 2617,1.0,1.0,1.0,,latrobe-valley-vicwangaratta-vic,-35.2199,149.0869
Tim Miosge,Cream Residential,550.0,"192/7 Irving Street,",PHILLIP ACT 2606,2.0,1.0,1.0,,latrobe-valley-vicwangaratta-vic,-35.3396914,149.0842859
Angela Weatherill,CTC Property Group,600.0,"13/86 Mawson Drive,",MAWSON ACT 2607,2.0,1.0,1.0,,latrobe-valley-vicwangaratta-vic,-35.364237,149.0929098
Michael Guneratne,Hayman Partners,590.0,"296/7 Irving Street,",PHILLIP ACT 2606,2.0,1.0,2.0,,latrobe-valley-vicwangaratta-vic,-35.3396914,149.0842859
Brittinee Smith,Ray White Canberra,600.0,"6/9 Maria Place,",LYONS ACT 2606,2.0,2.0,2.0,,latrobe-valley-vicwangaratta-vic,-35.3465785,149.0794527
Stacie Maher,Ray White Brookwater and Greater Springfield,600.0,"28 Beaming Road,",RIPLEY QLD 4306,4.0,2.0,2.0,,latrobe-valley-vicwangaratta-vic,47.55831,8.40474
Client Concierge,The Property Collective,530.0,"2,2,1/220 Melrose Drive,",PHILLIP ACT 2606,2.0,2.0,1.0,,latrobe-valley-vicwangaratta-vic,-35.3406,149.074
Leasing Department,Vanilla Rentals,680.0,"4 Aspen Court,",REGENCY DOWNS QLD 4341,4.0,2.0,2.0,,latrobe-valley-vicwangaratta-vic,-27.5185352,152.4475326
Rose,Distinct,700.0,"41/2 Foulkes Street,",DENMAN PROSPECT ACT 2611,3.0,2.0,2.0,,latrobe-valley-vicwangaratta-vic,-35.3008983,149.0302502
Danielle Coady,Element Property Services,630.0,"Unit 207/43 Arthur Blakeley Way,",COOMBS ACT 2611,3.0,2.0,2.0,,latrobe-valley-vicwangaratta-vic,-35.3503,149.0155
Lee Forbes,McGrath Hunter Valley,480.0,"2A Sawyer Street,",PAXTON NSW 2325,3.0,1.0,1.0,,latrobe-valley-vicwangaratta-vic,-32.9036435,151.2871318
Ned Hibbert,Maloney's the Estate Agent,470.0,"5/78 Hodgson Crescent,",PEARCE ACT 2607,2.0,1.0,1.0,,latrobe-valley-vicwangaratta-vic,-35.3572232,149.0881052
Leasing Agent,Bolton & Co O'Connor,475.0,"5/10 Tank St,",PHILLIP ACT 2606,1.0,1.0,1.0,"1,367m²",latrobe-valley-vicwangaratta-vic,-35.3468583,149.0948472
Alicia Hopgood,,650.0,"126 Mt Alexander Road,",TRAVANCORE VIC 3032,2.0,1.0,,,latrobe-valley-vicwangaratta-vic,-37.7827657,144.9346085
Kelly Smyth,,700.0,"6 Pankhurst Avenue,",NORTH ROTHBURY NSW 2335,4.0,2.0,2.0,,latrobe-valley-vicwangaratta-vic,46.58311,6.88295
Catherine Walter,,540.0,"2/22 Marguerite St,",RANELAGH TAS 7109,2.0,2.0,1.0,,latrobe-valley-vicwangaratta-vic,-43.0069653,147.041656
Catherine Walter,,250.0,"2/60 Pottery Rd,",DOVER TAS 7117,1.0,1.0,1.0,,latrobe-valley-vicwangaratta-vic,-43.32535,147.0009739
Kelly Smyth,,850.0,"11 Wesley Street,",BOLWARRA HEIGHTS NSW 2320,4.0,2.0,2.0,,latrobe-valley-vicwangaratta-vic,-32.6994627,151.5863782
Shikayla Pike,,420.0,"2/1 Gant Street,",LENAH VALLEY TAS 7008,1.0,1.0,1.0,53m²,latrobe-valley-vicwangaratta-vic,-42.8634275,147.2976577
Bradley Shadlow,,600.0,"26 Evatt Street,",PELAW MAIN NSW 2327,4.0,2.0,2.0,556m²,latrobe-valley-vicwangaratta-vic,-32.83779,151.48151
Cooper Cavallo,,610.0,"405/9 Shuter Street,",MOONEE PONDS VIC 3039,2.0,2.0,1.0,,latrobe-valley-vicwangaratta-vic,-37.7675792,144.9207019
Ryan Mitchell,,520.0,"32/270 Wollombi Road,",BELLBIRD NSW 2325,3.0,2.0,2.0,,latrobe-valley-vicwangaratta-vic,-32.8521292,151.327002
Ryan Mitchell,,440.0,"2 Jersey Place,",MUSWELLBROOK NSW 2333,3.0,1.0,2.0,712m²,latrobe-valley-vicwangaratta-vic,-32.2765009,150.8810529
Tomeeka Zielinski,,670.0,"7 Blacksmith Street,",CLIFTLEIGH NSW 2321,4.0,2.0,2.0,451m²,latrobe-valley-vicwangaratta-vic,-32.7893663,151.5128925
Ryan Mitchell,,550.0,"1/71 Osborn Avenue,",MUSWELLBROOK NSW 2333,3.0,2.0,1.0,,latrobe-valley-vicwangaratta-vic,-32.2783348,150.8879675
Meleah Morris,,430.0,"1/20 Justine Parade,",RUTHERFORD NSW 2320,2.0,1.0,1.0,,latrobe-valley-vicwangaratta-vic,-32.7090222,151.519136
Sylvia Mesoina,,1200.0,"3A Bain Place,",DUNDAS VALLEY NSW 2117,4.0,3.0,2.0,,latrobe-valley-vicwangaratta-vic,-33.793335,151.057577
Laura Kelly,,1050.0,"68 Ivy Street,",DARLINGTON NSW 2330,3.0,1.0,,,latrobe-valley-vicwangaratta-vic,-33.8900487,151.1956231
Cooper Cavallo,,475.0,"7/21 Moore Street,",MOONEE PONDS VIC 3039,1.0,1.0,1.0,,latrobe-valley-vicwangaratta-vic,-37.7685092,144.9200385
Yejin (Jenny) Seol,,670.0,"61 Supply Street,",DUNDAS VALLEY NSW 2117,3.0,1.0,2.0,,latrobe-valley-vicwangaratta-vic,-33.788048,151.05522
Jasmine Wheeler,,400.0,"1/192A Chandlers Hill Road,",HAPPY VALLEY SA 5159,1.0,1.0,2.0,,latrobe-valley-vicwangaratta-vic,-35.0804478,138.5675526
Natalie Fehlberg,,460.0,"77 Charlotte Street,",NEW NORFOLK TAS 7140,3.0,1.0,2.0,,latrobe-valley-vicwangaratta-vic,-42.7891229,147.0548326
Bradley Shadlow,,600.0,"35 Devon Street,",GRETA NSW 2334,4.0,2.0,2.0,,latrobe-valley-vicwangaratta-vic,-32.6717918,151.3862909
Erin Slade,,440.0,"106 Maitland Street,",MUSWELLBROOK NSW 2333,3.0,1.0,,,latrobe-valley-vicwangaratta-vic,-32.269738,150.8882181
Natalie Scinto,,480.0,"44 Flockhart Avenue,",VALLEY VIEW SA 5093,3.0,1.0,4.0,,latrobe-valley-vicwangaratta-vic,-34.8415355,138.6704047
Lucy Grice,,540.0,"77 Native Corners Road,",CAMPANIA TAS 7026,3.0,2.0,,,latrobe-valley-vicwangaratta-vic,-42.6520866,147.4056027
Renee Moore,,620.0,"16 Royston Circuit,",FARLEY NSW 2320,4.0,2.0,1.0,,latrobe-valley-vicwangaratta-vic,-32.7295806,151.5109152
Bradley Shadlow,,460.0,"7B Jersey Street,",GILLIESTON HEIGHTS NSW 2321,2.0,1.0,1.0,,latrobe-valley-vicwangaratta-vic,-32.768159,151.523305
Belinda Bean,,1050.0,"12 O'Connell Place,",RED HILL QLD 4059,3.0,2.0,2.0,,latrobe-valley-vicwangaratta-vic,-27.4561038,153.0048394
Bradley Shadlow,,670.0,"9 Lapwing Street,",ABERGLASSLYN NSW 2320,4.0,2.0,2.0,495m²,latrobe-valley-vicwangaratta-vic,-32.6934593,151.546537
Zac Keltie,,850.0,"14 Dickens Street,",MOONEE PONDS VIC 3039,3.0,1.0,1.0,,latrobe-valley-vicwangaratta-vic,-37.7717185,144.9272268
Jeremy Paikaew,,675.0,"1713/179 Alfred Street,",FORTITUDE VALLEY QLD 4006,1.0,1.0,1.0,,latrobe-valley-vicwangaratta-vic,47.35156,8.10669
Kelly Smyth,,750.0,"86 Rigby Drive,",NORTH ROTHBURY NSW 2335,4.0,2.0,2.0,,latrobe-valley-vicwangaratta-vic,46.58311,6.88295
Carol Hartlett,,580.0,"19 Stone Road,",HAPPY VALLEY SA 5159,3.0,1.0,4.0,,latrobe-valley-vicwangaratta-vic,-35.0814718,138.5622385
Erin Slade,,550.0,"2/86 Tindale Street,",MUSWELLBROOK NSW 2333,4.0,2.0,2.0,,latrobe-valley-vicwangaratta-vic,-32.2737441,150.8826497
Tabi Yazdi,,1160.0,"11505/5 Sam Sing Street,",WATERLOO NSW 2017,2.0,2.0,1.0,,latrobe-valley-vicwangaratta-vic,70.4991,23.97393
Winnie Wong,,,"47 Alexander Street,",DUNDAS VALLEY NSW 2117,3.0,2.0,2.0,,latrobe-valley-vicwangaratta-vic,-33.787647,151.053962
Casey Blaine,,420.0,"5/8 Dale St,",KENNINGTON VIC 3550,1.0,1.0,1.0,,latrobe-valley-vicwangaratta-vic,-36.7612758,144.3023453
Jasmine Wheeler,,675.0,"4 Fairbrother Drive,",HAPPY VALLEY SA 5159,3.0,1.0,3.0,873m²,latrobe-valley-vicwangaratta-vic,-35.0870965,138.5913009
Cassandra Ambrose,,525.0,"7 Heath Street,",BEGA NSW 2550,3.0,1.0,1.0,,latrobe-valley-vicwangaratta-vic,-36.6756663,149.8366853
Tyler Fardell,,585.0,"26 Auburn Street,",GILLIESTON HEIGHTS NSW 2321,4.0,2.0,1.0,,latrobe-valley-vicwangaratta-vic,-32.7674732,151.5243401
Tracey Coe,,550.0,"1671a Nowra Road,",FITZROY FALLS NSW 2577,3.0,1.0,,,latrobe-valley-vicwangaratta-vic,-34.65,150.48333
Breanna Wilson,,530.0,"2/9 Windermere Road,",LOCHINVAR NSW 2321,3.0,2.0,1.0,,latrobe-valley-vicwangaratta-vic,-32.6994169,151.445072
,,560.0,"6 Latrobe Avenue,",PAKENHAM VIC 3810,3.0,2.0,2.0,,latrobe-valley-vicwangaratta-vic,-38.0715931,145.451367
,,500.0,"7/164 Napier Street,",ESSENDON VIC 3040,2.0,1.0,1.0,,latrobe-valley-vicwangaratta-vic,-37.7440895,144.9197012
,,895.0,"28 Glenview Road,",STRATHMORE VIC 3041,3.0,2.0,2.0,,latrobe-valley-vicwangaratta-vic,-37.7373213,144.9207357
,,530.0,"902/19 Russell Street,",ESSENDON VIC 3040,2.0,2.0,1.0,,latrobe-valley-vicwangaratta-vic,-37.7555686,144.9167994
,,650.0,"7/11 Hodnet Bend,",THE VINES WA 6069,3.0,2.0,2.0,270m²,latrobe-valley-vicwangaratta-vic,-31.7623708,115.9872899
,,580.0,"21 Manchado Street,",TARNEIT VIC 3029,4.0,2.0,2.0,,latrobe-valley-vicwangaratta-vic,-37.8826,144.7003
,,410.0,"5/48 Scotia Street,",MOONEE PONDS VIC 3039,1.0,1.0,1.0,,latrobe-valley-vicwangaratta-vic,-37.7703515,144.9052814
,,700.0,"401/9 Shuter Street,",MOONEE PONDS VIC 3039,2.0,2.0,1.0,7m²,latrobe-valley-vicwangaratta-vic,-37.7675792,144.9207019
,,430.0,"134 Warana Drive,",HAMPTON PARK VIC 3976,3.0,1.0,1.0,544m²,latrobe-valley-vicwangaratta-vic,-38.0330421,145.2799145
,,740.0,"41 Clydebank Road,",ESSENDON WEST VIC 3040,3.0,1.0,3.0,,latrobe-valley-vicwangaratta-vic,-37.7559997,144.8881244
,,850.0,"1/7A Wiseman Court,",ESSENDON VIC 3040,4.0,2.0,2.0,,latrobe-valley-vicwangaratta-vic,-37.7521745,144.9267519
,,630.0,"1/56 Glenard Drive,",EAGLEMONT VIC 3084,2.0,1.0,1.0,,latrobe-valley-vicwangaratta-vic,-37.7612356,145.0721257
,,795.0,"69 Ferry Pde,",NORTH ROTHBURY NSW 2335,5.0,2.0,2.0,,latrobe-valley-vicwangaratta-vic,46.58311,6.88295
,,460.0,"3 Bent Street,",TAREE NSW 2430,3.0,1.0,1.0,,latrobe-valley-vicwangaratta-vic,-31.9044504,152.4716147
,,490.0,"204/35 Hall Street,",MOONEE PONDS VIC 3039,1.0,1.0,1.0,,latrobe-valley-vicwangaratta-vic,-37.7661867,144.9232616
,,575.0,"18/43 Raleigh Street,",ESSENDON VIC 3040,2.0,1.0,1.0,,latrobe-valley-vicwangaratta-vic,-37.7534371,144.9221626
,,700.0,"52 Bulbul Cresent,",FLETCHER NSW 2287,3.0,2.0,1.0,,latrobe-valley-vicwangaratta-vic,-32.87232,151.64008
,,800.0,"811/35 Furzer Street,",PHILLIP ACT 2606,3.0,2.0,2.0,,latrobe-valley-vicwangaratta-vic,-35.3436731,149.0842998
,,500.0,"6/5 Parkhill Street,",PEARCE ACT 2607,2.0,1.0,1.0,,latrobe-valley-vicwangaratta-vic,-35.3629171,149.0807051
,,540.0,"306/11 Launceston Street,",PHILLIP ACT 2606,2.0,2.0,1.0,,latrobe-valley-vicwangaratta-vic,-35.3413702,149.086896
,,1200.0,"10 Baas Becking Street,",WHITLAM ACT 2611,4.0,3.0,2.0,,latrobe-valley-vicwangaratta-vic,-35.2743252,149.0445177
,,650.0,"4/61 Launceston Street,",LYONS ACT 2606,3.0,2.0,2.0,,latrobe-valley-vicwangaratta-vic,-35.3398343,149.0820314
,,470.0,"706 Tinonee Road,",MONDROOK NSW 2430,3.0,2.0,1.0,,latrobe-valley-vicwangaratta-vic,-31.9024341,152.3917953
,,650.0,"20 Jacaranda Avenue,",TAREE NSW 2430,4.0,3.0,5.0,,latrobe-valley-vicwangaratta-vic,-31.8934285,152.4833005
,,580.0,"303/76 Steve Irwin Avenue,",WRIGHT ACT 2611,2.0,2.0,2.0,,latrobe-valley-vicwangaratta-vic,-35.3197585,149.0371889
,,800.0,"1506/15 Bowes Street,",PHILLIP ACT 2606,3.0,2.0,2.0,,latrobe-valley-vicwangaratta-vic,-35.3436934,149.0861817
,,690.0,"30/2 Hopegood Place,",GARRAN ACT 2605,3.0,2.0,2.0,,latrobe-valley-vicwangaratta-vic,-35.3438019,149.1067768
,,710.0,"1810/49 Furzer Street,",PHILLIP ACT 2606,3.0,2.0,2.0,,latrobe-valley-vicwangaratta-vic,-35.3436731,149.0842998
,,650.0,"1521D Moss Vale Rd,",KANGAROO VALLEY NSW 2577,4.0,2.0,,,latrobe-valley-vicwangaratta-vic,-34.7271908,150.5207587
,,620.0,"4 Horrocks Street,",TORRENS ACT 2607,3.0,2.0,1.0,,latrobe-valley-vicwangaratta-vic,-35.3690238,149.0882282
,,460.0,"268/7 Irving Street,",PHILLIP ACT 2606,1.0,1.0,1.0,,latrobe-valley-vicwangaratta-vic,-35.3396914,149.0842859
,,540.0,"98/41 Philip Hodgins Street,",WRIGHT ACT 2611,2.0,2.0,1.0,,latrobe-valley-vicwangaratta-vic,-35.3201139,149.0319572
,,500.0,"8/9 Farrer Place,",FARRER ACT 2607,2.0,1.0,1.0,,latrobe-valley-vicwangaratta-vic,-35.3757398,149.1015688
,,620.0,"15 Sulman Place,",PHILLIP ACT 2606,2.0,1.0,2.0,,latrobe-valley-vicwangaratta-vic,-35.3527116,149.0962572
,,1300.0,"89 Fox Valley Rd,",WAHROONGA NSW 2076,4.0,2.0,1.0,,latrobe-valley-vicwangaratta-vic,-33.727729,151.110985
,,1000.0,"3 Gouger Street,",TORRENS ACT 2607,5.0,2.0,1.0,,latrobe-valley-vicwangaratta-vic,-35.3770862,149.0870009
,,580.0,"711/15 Bowes Street,",PHILLIP ACT 2606,2.0,2.0,1.0,,latrobe-valley-vicwangaratta-vic,-35.3436934,149.0861817
,,430.0,"141/41 Philip Hodgins Street,",WRIGHT ACT 2611,1.0,1.0,1.0,,latrobe-valley-vicwangaratta-vic,-35.3201139,149.0319572
,,950.0,"1/266 Abercrombie Street,",DARLINGTON NSW 2330,2.0,1.0,,,latrobe-valley-vicwangaratta-vic,-33.8911102,151.1961307
,,760.0,"10 Pope Street,",HUGHES ACT 2605,3.0,1.0,3.0,"1,114m²",latrobe-valley-vicwangaratta-vic,-35.3368605,149.0910231
,,530.0,"313/1050 Mt Alexander Road,",ESSENDON VIC 3040,2.0,2.0,1.0,,latrobe-valley-vicwangaratta-vic,-37.7538,144.8883
,,595.0,"311/333 Ascot Vale Road,",MOONEE PONDS VIC 3039,2.0,2.0,1.0,,latrobe-valley-vicwangaratta-vic,-37.7667,144.9167
,,930.0,"117 Ada Norris Avenue,",DENMAN PROSPECT ACT 2611,4.0,2.0,2.0,,latrobe-valley-vicwangaratta-vic,-35.303567,149.0187725
,,1900.0,"13 Amanda Street,",BROOKFIELD QLD 4069,7.0,5.0,9.0,1.85ha,latrobe-valley-vicwangaratta-vic,-27.5099123,152.9258298
,,1150.0,"2203/49 Furzer Street,",PHILLIP ACT 2606,3.0,2.0,2.0,,latrobe-valley-vicwangaratta-vic,-35.3436731,149.0842998
,,1100.0,"2202/49 Furzer Street,",PHILLIP ACT 2606,3.0,2.0,2.0,,latrobe-valley-vicwangaratta-vic,-35.3406,149.074
,,500.0,"146/7 Irving Street,",PHILLIP ACT 2606,1.0,1.0,1.0,,latrobe-valley-vicwangaratta-vic,-35.3396914,149.0842859
,,700.0,"4a Harvey Road,",FOREST HILL QLD 4342,4.0,2.0,2.0,,latrobe-valley-vicwangaratta-vic,-27.5721472,152.3867092
,,720.0,"621/15 Bowes Street,",PHILLIP ACT 2606,3.0,2.0,2.0,,latrobe-valley-vicwangaratta-vic,-35.3436934,149.0861817
,,690.0,"6A Esk Place,",LYONS ACT 2606,4.0,1.0,2.0,,latrobe-valley-vicwangaratta-vic,-35.3352501,149.0715599
,,240.0,"63 Pintail Drive,",MELTON SOUTH VIC 3338,1.0,1.0,,,latrobe-valley-vicwangaratta-vic,-37.719208,144.5789327
,,250.0,"8 Jacobena Road,",MELTON SOUTH VIC 3338,1.0,1.0,,,latrobe-valley-vicwangaratta-vic,-37.7140748,144.5662005
,,380.0,"220 Melrose Drive,",PHILLIP ACT 2606,1.0,1.0,,,latrobe-valley-vicwangaratta-vic,-35.3452346,149.0830029
$620 pw,,620.0,"5A Eldon Place,",LYONS ACT 2606,3.0,1.0,1.0,,latrobe-valley-vicwangaratta-vic,-35.3364404,149.0762119
,,675.0,"13 Mawson Drive,",MAWSON ACT 2607,4.0,1.0,2.0,,latrobe-valley-vicwangaratta-vic,-35.364237,149.0929098
,,400.0,"67/4 Wilkins Street,",MAWSON ACT 2607,2.0,1.0,1.0,,latrobe-valley-vicwangaratta-vic,-35.3695091,149.0992764
,,400.0,"11/a Address Upon Request,",CANNON VALLEY QLD 4800,1.0,1.0,1.0,,latrobe-valley-vicwangaratta-vic,-20.28333,148.68333
,,1200.0,"24 Wattle Valley Road,",CANTERBURY VIC 3126,4.0,2.0,,,latrobe-valley-vicwangaratta-vic,-37.8327908,145.0816254
,,1650.0,"16/10 Taronga Place,",O'MALLEY ACT 2606,4.0,2.0,2.0,,latrobe-valley-vicwangaratta-vic,-35.3570268,149.1085724
,,500.0,"1A Gerogery Place,",O'MALLEY ACT 2606,1.0,1.0,2.0,,latrobe-valley-vicwangaratta-vic,-35.3563784,149.1064636
,,400.0,"2 Furzer Street,",PHILLIP ACT 2606,1.0,1.0,,,latrobe-valley-vicwangaratta-vic,-35.3436731,149.0842998
,,560.0,"1317/15 Bowes Street,",PHILLIP ACT 2606,2.0,2.0,1.0,,latrobe-valley-vicwangaratta-vic,-35.3436934,149.0861817
,,525.0,"43/G04 Arthur Blakeley Way,",COOMBS ACT 2611,2.0,1.0,1.0,,latrobe-valley-vicwangaratta-vic,-35.3159186,149.0373279
,,3500.0,"17 Greville Street,",CLOVELLY NSW 2031,7.0,4.0,2.0,,latrobe-valley-vicwangaratta-vic,-33.9100583,151.2570188
,,550.0,"1705/49 Furzer Street,",PHILLIP ACT 2606,2.0,1.0,1.0,,latrobe-valley-vicwangaratta-vic,-35.3436731,149.0842998
,,570.0,"1703/15 Bowes Street,",PHILLIP ACT 2606,2.0,2.0,1.0,,latrobe-valley-vicwangaratta-vic,-35.3436934,149.0861817
,,520.0,"210/55 Collins Street,",ESSENDON VIC 3040,2.0,2.0,1.0,,latrobe-valley-vicwangaratta-vic,-37.7467348,144.9072533
,,580.0,"1210/49 Furzer Street,",PHILLIP ACT 2606,2.0,1.0,1.0,,latrobe-valley-vicwangaratta-vic,-35.3436731,149.0842998
,,520.0,"4/6 Antis Street,",PHILLIP ACT 2606,2.0,1.0,1.0,,latrobe-valley-vicwangaratta-vic,-35.3459528,149.0955551
,,700.0,"4 Horrocks Street,",TORRENS ACT 2607,3.0,2.0,1.0,,latrobe-valley-vicwangaratta-vic,-35.3690238,149.0882282
,,645.0,"2 Canterbury Street,",HUGHESDALE VIC 3166,3.0,1.0,2.0,,latrobe-valley-vicwangaratta-vic,-37.901016,145.0818071
,,700.0,"31/2 Hopegood Place,",GARRAN ACT 2605,3.0,2.0,2.0,,latrobe-valley-vicwangaratta-vic,-35.3438019,149.1067768
,,725.0,"14 Besant Street,",PEARCE ACT 2607,4.0,2.0,1.0,,latrobe-valley-vicwangaratta-vic,-35.3649448,149.0853477
,,710.0,"1510/49 Furzer Street,",PHILLIP ACT 2606,3.0,2.0,2.0,,latrobe-valley-vicwangaratta-vic,-35.3436731,149.0842998
,,590.0,"217/2 Terry Connolly Street,",COOMBS ACT 2611,2.0,2.0,2.0,,latrobe-valley-vicwangaratta-vic,-35.3212648,149.04567
,,560.0,"612/2 Furzer Street,",PHILLIP ACT 2606,2.0,2.0,1.0,,latrobe-valley-vicwangaratta-vic,-35.3436731,149.0842998
,,575.0,"Level 15, 1501/2 Furzer Street,",PHILLIP ACT 2606,2.0,2.0,1.0,,latrobe-valley-vicwangaratta-vic,-35.3436731,149.0842998
$480 per week,,480.0,"49 Furzer Street,",PHILLIP ACT 2606,1.0,1.0,1.0,,latrobe-valley-vicwangaratta-vic,-35.3436731,149.0842998
,,450.0,"1408/49 Furzer Street,",PHILLIP ACT 2606,1.0,1.0,1.0,,latrobe-valley-vicwangaratta-vic,-35.3436731,149.0842998
,,570.0,"110 Paterson Road,",BOLWARRA NSW 2320,3.0,1.0,1.0,,latrobe-valley-vicwangaratta-vic,-32.7073157,151.5761053
,,650.0,"16 Launceston Street,",LYONS ACT 2606,3.0,1.0,2.0,,latrobe-valley-vicwangaratta-vic,-35.3398343,149.0820314
,,540.0,"1105/49 Furzer Street,",PHILLIP ACT 2606,2.0,1.0,1.0,,latrobe-valley-vicwangaratta-vic,-35.3406,149.074
$670.00 weekly,,670.0,"224 GEORGE STREET,",EAST MAITLAND NSW 2323,3.0,2.0,1.0,,latrobe-valley-vicwangaratta-vic,-32.7526628,151.585183
,,650.0,"309/333 Ascot Vale Road,",MOONEE PONDS VIC 3039,2.0,2.0,1.0,,latrobe-valley-vicwangaratta-vic,-37.7676521,144.9248711
,,575.0,"103 Long Gully Road,",ANGASTON SA 5353,4.0,1.0,4.0,,latrobe-valley-vicwangaratta-vic,-34.5243868,139.0395983
,,430.0,"156/41 Philip Hodgins Street,",WRIGHT ACT 2611,1.0,1.0,1.0,,latrobe-valley-vicwangaratta-vic,-35.3201139,149.0319572
,,895.0,"12 Engel Street,",COOMBS ACT 2611,4.0,2.0,2.0,,latrobe-valley-vicwangaratta-vic,-35.3152697,149.0397548
,,430.0,"121/41 Philip Hodgins Street,",WRIGHT ACT 2611,1.0,1.0,1.0,,latrobe-valley-vicwangaratta-vic,-35.3201139,149.0319572
,,700.0,"1505/120 Eastern Valley Way,",BELCONNEN ACT 2617,3.0,2.0,2.0,,latrobe-valley-vicwangaratta-vic,-35.2407295,149.0731645
,,1450.0,"5A Stephens Place,",GARRAN ACT 2605,4.0,2.0,4.0,,latrobe-valley-vicwangaratta-vic,-35.3417145,149.1063627
,,790.0,"35/11 Irving Street,",PHILLIP ACT 2606,3.0,2.0,2.0,,latrobe-valley-vicwangaratta-vic,-35.3396914,149.0842859
,,535.0,"609/15 Bowes Street,",PHILLIP ACT 2606,2.0,2.0,1.0,,latrobe-valley-vicwangaratta-vic,-35.3436934,149.0861817
,,730.0,"224/109 Manningham St,",PARKVILLE VIC 3052,1.0,1.0,1.0,,latrobe-valley-vicwangaratta-vic,-37.7877105,144.9423529
,,665.0,"225/109 Manningham St,",PARKVILLE VIC 3052,2.0,2.0,1.0,,latrobe-valley-vicwangaratta-vic,-37.7877105,144.9423529
,,750.0,"403/109 Manningham St,",PARKVILLE VIC 3052,2.0,2.0,1.0,,latrobe-valley-vicwangaratta-vic,-37.7877105,144.9423529
,,460.0,"26/11 Hoolihan Street,",DENMAN PROSPECT ACT 2611,1.0,1.0,1.0,,latrobe-valley-vicwangaratta-vic,-35.3038769,149.0315702
,,400.0,"105/11 Launceston Street,",PHILLIP ACT 2606,1.0,1.0,,,latrobe-valley-vicwangaratta-vic,-35.3413702,149.086896
,,560.0,"49 Furzer Street,",PHILLIP ACT 2606,2.0,1.0,1.0,,latrobe-valley-vicwangaratta-vic,-35.3436731,149.0842998
,,460.0,"702/49 Furzer Street,",PHILLIP ACT 2606,1.0,1.0,1.0,,latrobe-valley-vicwangaratta-vic,-35.3436731,149.0842998
,,580.0,"1006/2 Furzer Street,",PHILLIP ACT 2606,2.0,2.0,1.0,,latrobe-valley-vicwangaratta-vic,-35.3436731,149.0842998
,,950.0,"607/109 109 Manningham St,",PARKVILLE VIC 3052,2.0,2.0,1.0,,latrobe-valley-vicwangaratta-vic,-37.7603,144.9502
,,1450.0,"50 Ngunnawal Drive,",ISAACS ACT 2607,5.0,4.0,5.0,,latrobe-valley-vicwangaratta-vic,-35.3767,149.105
,,525.0,"17/13 Devlin Street,",RYDE NSW 2112,2.0,1.0,1.0,,latrobe-valley-vicwangaratta-vic,-33.8168018,151.1025321
,,475.0,"608/333 Ascot Vale Road,",MOONEE PONDS VIC 3039,1.0,1.0,1.0,,latrobe-valley-vicwangaratta-vic,-37.7667,144.9167
,,1000.0,"43/9 Doggett St,",FORTITUDE VALLEY QLD 4006,3.0,2.0,2.0,,latrobe-valley-vicwangaratta-vic,-27.4567365,153.0407509
$820 per week,,820.0,"76 Arthur Blakeley Way,",COOMBS ACT 2611,4.0,3.0,2.0,,latrobe-valley-vicwangaratta-vic,-35.3159186,149.0373279
$820 per week,,820.0,"76 Arthur Blakeley Way,",COOMBS ACT 2611,4.0,3.0,2.0,,latrobe-valley-vicwangaratta-vic,-35.3159186,149.0373279
,,880.0,"129 McMichael Terrace,",DENMAN PROSPECT ACT 2611,4.0,2.0,3.0,,latrobe-valley-vicwangaratta-vic,-35.2997895,149.0268607
,,540.0,"110/119 Poath Road,",MURRUMBEENA VIC 3163,2.0,1.0,1.0,,latrobe-valley-vicwangaratta-vic,-37.8877788,145.0780149
,,550.0,"2 beds, 2/11 Launceston Street,",PHILLIP ACT 2606,2.0,2.0,2.0,,latrobe-valley-vicwangaratta-vic,-35.3406,149.074
,,430.0,"1 bedroom/11 Launceston Street,",PHILLIP ACT 2606,1.0,1.0,1.0,,latrobe-valley-vicwangaratta-vic,-35.3406,149.074
,,530.0,"2 bed, 1 c/11 Launceston Street,",PHILLIP ACT 2606,2.0,2.0,1.0,,latrobe-valley-vicwangaratta-vic,-35.3406,149.074
,,430.0,"1 bedroom/6 Furzer Street,",PHILLIP ACT 2606,1.0,1.0,1.0,,latrobe-valley-vicwangaratta-vic,-35.3406,149.074
,,530.0,"2 bed, 1 c/6 Furzer Street,",PHILLIP ACT 2606,2.0,2.0,1.0,,latrobe-valley-vicwangaratta-vic,-35.3406,149.074
,,430.0,"1 bedroom/2 Furzer Street,",PHILLIP ACT 2606,1.0,1.0,1.0,,latrobe-valley-vicwangaratta-vic,-35.3406,149.074
,,550.0,"2 bed, 2 c/6 Furzer Street,",PHILLIP ACT 2606,2.0,2.0,2.0,,latrobe-valley-vicwangaratta-vic,-35.3406,149.074
,,530.0,"2 bed, 1/2 Furzer Street,",PHILLIP ACT 2606,2.0,2.0,1.0,,latrobe-valley-vicwangaratta-vic,-35.3406,149.074
,,490.0,"1+ study/2 Furzer Street,",PHILLIP ACT 2606,1.0,1.0,1.0,,latrobe-valley-vicwangaratta-vic,-35.3406,149.074
,,530.0,"4/53 Port Jackson Circuit,",PHILLIP ACT 2606,2.0,1.0,1.0,,latrobe-valley-vicwangaratta-vic,-35.3480751,149.0936894
,,670.0,"2004/2 Furzer Street,",PHILLIP ACT 2606,2.0,2.0,1.0,,latrobe-valley-vicwangaratta-vic,-35.3436731,149.0842998
,,175.0,"1009 Old Bruce Highway,",KYBONG QLD 4570,1.0,1.0,,,latrobe-valley-vicwangaratta-vic,-26.251989,152.7056265
,,590.0,"2C/2 Furzer Street,",PHILLIP ACT 2606,2.0,2.0,2.0,,latrobe-valley-vicwangaratta-vic,-35.3436731,149.0842998
,,815.0,"151/9 Irving Street,",PHILLIP ACT 2606,3.0,2.0,2.0,,latrobe-valley-vicwangaratta-vic,-35.3396914,149.0842859
,,730.0,"65/96 McMichael Tce,",DENMAN PROSPECT ACT 2611,3.0,2.0,2.0,,latrobe-valley-vicwangaratta-vic,-35.2997895,149.0268607
,,610.0,"806/673 Latrobe Street,",DOCKLANDS VIC 3008,2.0,2.0,1.0,,latrobe-valley-vicwangaratta-vic,-37.8149,144.9505
,,430.0,"109/41 Philip Hodgins Street,",WRIGHT ACT 2611,1.0,1.0,1.0,,latrobe-valley-vicwangaratta-vic,-35.3201139,149.0319572
,,470.0,"2 Furzer Street,",PHILLIP ACT 2606,1.0,1.0,1.0,,latrobe-valley-vicwangaratta-vic,-35.3436731,149.0842998
,,1250.0,"7 Golgerth Street,",DENMAN PROSPECT ACT 2611,4.0,3.0,2.0,,latrobe-valley-vicwangaratta-vic,-35.3029208,149.0184729
,,665.0,"28/135 Easty Street,",PHILLIP ACT 2606,2.0,2.0,2.0,,latrobe-valley-vicwangaratta-vic,-35.3410517,149.0893609
,,620.0,"150A McCarthy Road,",WALLAROO NSW 2618,2.0,1.0,2.0,,latrobe-valley-vicwangaratta-vic,47.42478,7.59054
,,890.0,"1906/15 Bowes Street,",PHILLIP ACT 2606,3.0,2.0,2.0,,latrobe-valley-vicwangaratta-vic,-35.3436934,149.0861817
,,580.0,"49 Furzer Street,",PHILLIP ACT 2606,2.0,2.0,1.0,,latrobe-valley-vicwangaratta-vic,-35.3436731,149.0842998
,,540.0,"320/43 Arthur Blakeley Way,",COOMBS ACT 2611,2.0,1.0,2.0,,latrobe-valley-vicwangaratta-vic,-35.3159186,149.0373279
,,575.0,"33 Gledden Street,",CHIFLEY ACT 2606,3.0,1.0,1.0,,latrobe-valley-vicwangaratta-vic,-35.3550421,149.0808296
,,850.0,"229 Sculthorpe Ave,",WHITLAM ACT 2611,3.0,2.0,2.0,,latrobe-valley-vicwangaratta-vic,-35.2770409,149.0338783
,,485.0,"9A Muecke Place,",ISAACS ACT 2607,1.0,1.0,,,latrobe-valley-vicwangaratta-vic,-35.362491,149.1124351
,,1500.0,"5 Gerogery Place,",O'MALLEY ACT 2606,5.0,3.0,3.0,,latrobe-valley-vicwangaratta-vic,-35.3563784,149.1064636
$650.00 weekly,,650.0,"59/1 BALGOWNIE CIRCUIT,",HEDDON GRETA NSW 2321,4.0,2.0,1.0,,latrobe-valley-vicwangaratta-vic,-32.809123,151.5141342
,,1050.0,"127 Sculthorpe Avenue,",WHITLAM ACT 2611,4.0,3.0,2.0,,latrobe-valley-vicwangaratta-vic,-35.2770409,149.0338783
,,575.0,"38 Devonport Street,",LYONS ACT 2606,3.0,1.0,1.0,,latrobe-valley-vicwangaratta-vic,-35.3399729,149.0765596
$640.00 weekly,,640.0,"29 LAKESIDE CIRCUIT,",CESSNOCK NSW 2325,4.0,2.0,2.0,,latrobe-valley-vicwangaratta-vic,-32.8323797,151.3299667
,,1100.0,"60 Thwaites Crescent,",WRIGHT ACT 2611,4.0,3.0,2.0,,latrobe-valley-vicwangaratta-vic,-35.3122512,149.0270765
,,900.0,"207B/176 Blaxland Road,",RYDE NSW 2112,2.0,2.0,1.0,,latrobe-valley-vicwangaratta-vic,14.2766,46.8693
,,1200.0,"604A/176 Blaxland Road,",RYDE NSW 2112,2.0,2.0,1.0,,latrobe-valley-vicwangaratta-vic,14.2766,46.8693
,,500.0,"99 121 Easty Street,",PHILLIP ACT 2606,1.0,1.0,1.0,,latrobe-valley-vicwangaratta-vic,-35.3410517,149.0893609
,,760.0,"11/135 Easty Street,",PHILLIP ACT 2606,3.0,2.0,2.0,,latrobe-valley-vicwangaratta-vic,-35.3410517,149.0893609
,,670.0,"121 109 Manningham St,",PARKVILLE VIC 3052,1.0,1.0,1.0,,latrobe-valley-vicwangaratta-vic,-37.7877105,144.9423529
$595 - $596 per week,,595.0,"33 Currong Street,",REID ACT 2612,2.0,1.0,1.0,,latrobe-valley-vicwangaratta-vic,-35.2839691,149.1432609
$700 per week,,700.0,"12/3 Felstead Vista,",DENMAN PROSPECT ACT 2611,2.0,2.0,2.0,"8,875m²",latrobe-valley-vicwangaratta-vic,-35.2988472,149.023544
,,565.0,"12/2 Bamblett Rise,",DENMAN PROSPECT ACT 2611,2.0,1.0,2.0,,latrobe-valley-vicwangaratta-vic,-35.3037866,149.0306555
,,480.0,"76/121 Easty Street,",PHILLIP ACT 2606,1.0,1.0,1.0,,latrobe-valley-vicwangaratta-vic,-35.3410517,149.0893609
,,850.0,"41/8 Ken Tribe Street,",COOMBS ACT 2611,3.0,2.0,2.0,,latrobe-valley-vicwangaratta-vic,-35.3166815,149.0409183
,,1200.0,"60 Thwaites Crescent,",WRIGHT ACT 2611,5.0,3.0,2.0,,latrobe-valley-vicwangaratta-vic,-35.3122512,149.0270765
,,790.0,"65/96 McMichael Tce,",DENMAN PROSPECT ACT 2611,3.0,3.0,2.0,,latrobe-valley-vicwangaratta-vic,-35.2997895,149.0268607
,,820.0,"3A Olympus Way,",LYONS ACT 2606,4.0,2.0,2.0,,latrobe-valley-vicwangaratta-vic,-35.3398923,149.0729074
,,650.0,"53 Tipperary Dr,",ASHTONFIELD NSW 2323,4.0,2.0,2.0,,latrobe-valley-vicwangaratta-vic,-32.7764481,151.5848859
,,945.0,"31/116 Easty Street,",WODEN ACT 2606,1.0,1.0,1.0,"14,129m²",latrobe-valley-vicwangaratta-vic,-35.3410517,149.0893609
,,550.0,"17 Stephens Street,",KANDANGA QLD 4570,2.0,1.0,1.0,,latrobe-valley-vicwangaratta-vic,-26.3886676,152.6779521
,,450.0,"20 Couttaroo Place,",COUTTS CROSSING NSW 2460,3.0,1.0,4.0,,latrobe-valley-vicwangaratta-vic,-29.8332764,152.8907097
,,550.0,"1007/10 Trinity Street,",FORTITUDE VALLEY QLD 4006,1.0,1.0,1.0,,latrobe-valley-vicwangaratta-vic,-27.4533792,153.030899
,,500.0,"1105/35 Hall Street,",MOONEE PONDS VIC 3039,1.0,1.0,,,latrobe-valley-vicwangaratta-vic,-37.7661867,144.9232616
,,550.0,"6 Weld Crescent,",HOPE VALLEY SA 5090,3.0,1.0,2.0,,latrobe-valley-vicwangaratta-vic,-34.8448693,138.706992
,,570.0,"25 Finnegan Crescent,",MUSWELLBROOK NSW 2333,4.0,1.0,2.0,555m²,latrobe-valley-vicwangaratta-vic,-32.2791887,150.886303
,,480.0,"2/2 Kennedy Close,",MUSWELLBROOK NSW 2333,3.0,2.0,1.0,,latrobe-valley-vicwangaratta-vic,-32.2805694,150.8886612
,,520.0,"3/1 Waller Street,",EAST MAITLAND NSW 2323,2.0,2.0,1.0,,latrobe-valley-vicwangaratta-vic,-32.7508797,151.5942001
,,640.0,"807/348 Water Street,",FORTITUDE VALLEY QLD 4006,2.0,2.0,1.0,,latrobe-valley-vicwangaratta-vic,47.35156,8.10669
,,950.0,"340 Wattle Ponds Road,",SINGLETON NSW 2330,4.0,2.0,3.0,2.06ha,latrobe-valley-vicwangaratta-vic,-32.5343487,151.1749139
,,460.0,"2b Rae St,",CESSNOCK NSW 2325,3.0,2.0,1.0,,latrobe-valley-vicwangaratta-vic,-32.8234293,151.3725195
,,480.0,"2 Coneybeer Street,",BERRI SA 5343,3.0,1.0,3.0,,latrobe-valley-vicwangaratta-vic,-34.284955,140.5998793
,,550.0,"12 River Street,",BOWRAVILLE NSW 2449,3.0,1.0,1.0,,latrobe-valley-vicwangaratta-vic,-30.6432888,152.8557561
,,650.0,"7 Monterey Court,",MILL PARK VIC 3082,3.0,1.0,1.0,576m²,latrobe-valley-vicwangaratta-vic,-37.6703233,145.044045
,,520.0,"ID:3786840/59 Robertson Street,",FORTITUDE VALLEY QLD 4006,1.0,1.0,1.0,,latrobe-valley-vicwangaratta-vic,47.35156,8.10669
,,460.0,"54A Ardennes Circuit,",GILLIESTON HEIGHTS NSW 2321,2.0,1.0,1.0,,latrobe-valley-vicwangaratta-vic,-32.7688695,151.5223598
,,440.0,"3/50 Catherine Street,",CESSNOCK NSW 2325,2.0,1.0,1.0,,latrobe-valley-vicwangaratta-vic,-32.8418038,151.3396522
,,380.0,"3/41 Alick Street,",BELMONT NSW 2280,2.0,1.0,1.0,,latrobe-valley-vicwangaratta-vic,-33.0407583,151.659027
,,660.0,"12/41 Pearlman Street,",COOMBS ACT 2611,3.0,2.0,2.0,,latrobe-valley-vicwangaratta-vic,-35.3240461,149.04869
,,690.0,"23 Grasshawk Drive,",CHISHOLM NSW 2322,4.0,2.0,2.0,,latrobe-valley-vicwangaratta-vic,-32.7562944,151.6294171
,,380.0,"43 Tarwin Street,",BOOLARRA VIC 3870,3.0,1.0,4.0,,latrobe-valley-vicwangaratta-vic,-38.3812507,146.270966
,,475.0,"216/110 Keilor Road,",ESSENDON NORTH VIC 3041,2.0,2.0,1.0,,latrobe-valley-vicwangaratta-vic,-37.7441978,144.9096142
,,580.0,"89 St Georges Road,",TRARALGON VIC 3844,4.0,2.0,2.0,,latrobe-valley-vicwangaratta-vic,-38.1821833,146.5256322
,,660.0,"12 Cassandra Close,",NORTH BOAMBEE VALLEY NSW 2450,3.0,1.0,1.0,,latrobe-valley-vicwangaratta-vic,-30.3045999,153.0989169
,,800.0,"29 Konara Street,",LEPPINGTON NSW 2179,4.0,3.0,1.0,300m²,latrobe-valley-vicwangaratta-vic,-33.98203,150.80431
,,400.0,"2/10 Innes St,",NORTH ROTHBURY NSW 2335,2.0,1.0,1.0,,latrobe-valley-vicwangaratta-vic,46.58311,6.88295
,,900.0,"3/15 Market Street,",SINGLETON NSW 2330,2.0,2.0,2.0,,latrobe-valley-vicwangaratta-vic,-32.561761,151.1788688
,,520.0,"5/13 Winifred Street,",ESSENDON VIC 3040,2.0,1.0,1.0,,latrobe-valley-vicwangaratta-vic,-37.74418,144.9118769
,,860.0,"34 Onthonna Terrace,",UMINA BEACH NSW 2257,4.0,2.0,2.0,,latrobe-valley-vicwangaratta-vic,-33.5334273,151.3047748
,,530.0,"59 Leumeah Ave,",CHAIN VALLEY BAY NSW 2259,3.0,1.0,1.0,,latrobe-valley-vicwangaratta-vic,-33.1786734,151.5610821
,,800.0,"23 Mulumulung Street,",AUSTRAL NSW 2179,4.0,2.0,1.0,,latrobe-valley-vicwangaratta-vic,-33.9409659,150.7952812
,,450.0,"5 Wakeham Road,",THE DAWN QLD 4570,3.0,1.0,1.0,,latrobe-valley-vicwangaratta-vic,-26.2430774,152.6802556
,,450.0,"7 Farmer Crescent,",TRARALGON VIC 3844,3.0,2.0,2.0,696m²,latrobe-valley-vicwangaratta-vic,-38.1857905,146.5241505
,,600.0,"15 Donald Avenue,",ESSENDON VIC 3040,3.0,1.0,3.0,,latrobe-valley-vicwangaratta-vic,-37.7535112,144.9332026
,,500.0,"2/123 Watkins St,",WHITE GUM VALLEY WA 6162,2.0,1.0,1.0,,latrobe-valley-vicwangaratta-vic,-32.0602707,115.7600779
,,740.0,"59 Rigby Drive,",NORTH ROTHBURY NSW 2335,4.0,2.0,2.0,,latrobe-valley-vicwangaratta-vic,46.58311,6.88295
,,500.0,"52 Hammersmith Circuit,",TRARALGON VIC 3844,3.0,2.0,2.0,522m²,latrobe-valley-vicwangaratta-vic,-38.1819273,146.5512656
,,700.0,"62 The Drive,",YAMBA NSW 2464,3.0,2.0,2.0,488m²,latrobe-valley-vicwangaratta-vic,-29.443035,153.3623166
,,350.0,"117 North Huon Road,",RANELAGH TAS 7109,2.0,1.0,2.0,,latrobe-valley-vicwangaratta-vic,-43.011036,147.009534
,,920.0,"107 Piggabeen Road,",CURRUMBIN WATERS QLD 4223,3.0,1.0,4.0,,latrobe-valley-vicwangaratta-vic,-28.1826857,153.4438805
,,500.0,"36 Cemetery Road,",DOVER TAS 7117,3.0,2.0,4.0,,latrobe-valley-vicwangaratta-vic,-43.3272437,146.998205
,,480.0,"20 Lawn Avenue,",TRARALGON VIC 3844,3.0,2.0,2.0,568m²,latrobe-valley-vicwangaratta-vic,-38.2029,146.5480034
,,650.0,"6 Skehan Place,",EPPING VIC 3076,5.0,2.0,2.0,511m²,latrobe-valley-vicwangaratta-vic,-37.6377002,145.0369396
,,400.0,"22a Third Street,",WESTON NSW 2326,2.0,1.0,,,latrobe-valley-vicwangaratta-vic,-32.8125599,151.4622231
,,510.0,"207/6 Leicester Street,",CARLTON VIC 3053,1.0,1.0,,,latrobe-valley-vicwangaratta-vic,-37.802198,144.9607524
,,450.0,"Unit 1113/6 Leicester St,",CARLTON VIC 3053,1.0,1.0,,,latrobe-valley-vicwangaratta-vic,-37.8004,144.9684
,,470.0,"2/27 Tangerine Street,",GILLIESTON HEIGHTS NSW 2321,2.0,1.0,1.0,,latrobe-valley-vicwangaratta-vic,-32.7719228,151.5286538
,,625.0,"23/14 Le Geyt Street,",WINDSOR QLD 4030,2.0,2.0,1.0,,latrobe-valley-vicwangaratta-vic,-27.4359247,153.0360481
,,700.0,"74a Middle Boambee Road,",BOAMBEE NSW 2450,3.0,1.0,1.0,,latrobe-valley-vicwangaratta-vic,-30.3308686,153.0575873
,,600.0,"20 Lady Nelson Place,",YAMBA NSW 2464,3.0,2.0,4.0,,latrobe-valley-vicwangaratta-vic,-29.4274286,153.3294166
,,560.0,"2 Bourke Street,",ESSENDON WEST VIC 3040,3.0,1.0,2.0,,latrobe-valley-vicwangaratta-vic,-37.7544031,144.886333
,,650.0,"37 Scenic Drive,",GILLIESTON HEIGHTS NSW 2321,4.0,2.0,2.0,,latrobe-valley-vicwangaratta-vic,-32.7580488,151.536213
,,725.0,"3/462 Como Parade West,",MORDIALLOC VIC 3195,2.0,2.0,1.0,,latrobe-valley-vicwangaratta-vic,-37.9973332,145.0807967
,,500.0,"8 Boronia Crescent,",TRARALGON VIC 3844,3.0,2.0,2.0,,latrobe-valley-vicwangaratta-vic,-38.2066603,146.5185162
,,525.0,"10 Helen Terrace,",VALLEY VIEW SA 5093,3.0,1.0,2.0,,latrobe-valley-vicwangaratta-vic,-34.8392042,138.6636823
,,435.0,"2 Black Street,",MUSWELLBROOK NSW 2333,3.0,2.0,1.0,436m²,latrobe-valley-vicwangaratta-vic,-32.2871733,150.9100855
,,500.0,"3/15 Ruskin Street,",BERESFIELD NSW 2322,2.0,1.0,1.0,,latrobe-valley-vicwangaratta-vic,-32.8029742,151.657096
,,360.0,"11/44 Fletcher Street,",ESSENDON VIC 3040,1.0,1.0,1.0,,latrobe-valley-vicwangaratta-vic,-37.7553023,144.9207204
,,720.0,"35 Friarbird Ridge,",ABERGLASSLYN NSW 2320,4.0,2.0,3.0,,latrobe-valley-vicwangaratta-vic,-32.6944051,151.5367014
,,600.0,"12 Molucca Close,",ASHTONFIELD NSW 2323,3.0,1.0,2.0,,latrobe-valley-vicwangaratta-vic,-32.7675462,151.5987032
,,705.0,"21 Gollop Crescent,",REDWOOD PARK SA 5097,4.0,2.0,1.0,,latrobe-valley-vicwangaratta-vic,-34.8147978,138.7046174
,,750.0,"190 Boomerang Drive,",BLUEYS BEACH NSW 2428,4.0,2.0,2.0,,latrobe-valley-vicwangaratta-vic,-32.3480555,152.5360083
,,420.0,"28 Cleary Street,",GATTON QLD 4343,3.0,1.0,2.0,729m²,latrobe-valley-vicwangaratta-vic,-27.5680001,152.2745101
,,750.0,"29 Lapwing Street,",ABERGLASSLYN NSW 2320,4.0,2.0,2.0,646m²,latrobe-valley-vicwangaratta-vic,-32.6934593,151.546537
,,1100.0,"6 Grey Street,",GLENBROOK NSW 2773,4.0,3.0,2.0,,latrobe-valley-vicwangaratta-vic,-33.7701323,150.625044
,,680.0,"004/8 Kyabra Street,",NEWSTEAD QLD 4006,1.0,1.0,1.0,76m²,latrobe-valley-vicwangaratta-vic,47.35156,8.10669
,,450.0,"50 Allan Street,",GATTON QLD 4343,3.0,1.0,1.0,764m²,latrobe-valley-vicwangaratta-vic,-27.5451307,152.283187
,,500.0,"1/108 Davey Road,",GATTON QLD 4343,3.0,1.0,1.0,,latrobe-valley-vicwangaratta-vic,-27.5709414,152.2791819
,,400.0,"5/158 Augusta Road,",LENAH VALLEY TAS 7008,1.0,1.0,,,latrobe-valley-vicwangaratta-vic,-42.8631464,147.2907599
,,450.0,"42A Rodeo Drive,",GREEN VALLEY NSW 2168,2.0,1.0,,,latrobe-valley-vicwangaratta-vic,-33.8982944,150.8579025
,,510.0,"23 Albert Terrace,",PORT PIRIE SA 5540,3.0,2.0,3.0,603m²,latrobe-valley-vicwangaratta-vic,-33.1882639,138.0159224
,,880.0,"42 Rodeo Drive,",GREEN VALLEY NSW 2168,4.0,2.0,2.0,,latrobe-valley-vicwangaratta-vic,-33.8982944,150.8579025
,,1250.0,"55 Perry Street,",DUNDAS VALLEY NSW 2117,4.0,3.0,2.0,,latrobe-valley-vicwangaratta-vic,-33.792371,151.058556
,,450.0,"4/115 Newcastle Street,",EAST MAITLAND NSW 2323,3.0,1.0,1.0,,latrobe-valley-vicwangaratta-vic,-32.7537856,151.5877037
,,,"1BRM+CAR/35 Campbell Street,",BOWEN HILLS QLD 4006,1.0,1.0,1.0,,latrobe-valley-vicwangaratta-vic,47.35156,8.10669
,,400.0,"3/53 Flemington Street,",TRAVANCORE VIC 3032,1.0,1.0,1.0,,latrobe-valley-vicwangaratta-vic,-37.7814333,144.9329929
,,900.0,"9 Vernon Street,",STRATHMORE VIC 3041,4.0,4.0,2.0,,latrobe-valley-vicwangaratta-vic,-37.7323128,144.9216962
,,520.0,"3/220 South Valley Road,",HIGHTON VIC 3216,4.0,2.0,4.0,,latrobe-valley-vicwangaratta-vic,-38.1810122,144.3168363
,,700.0,"505/300 Swanston Street,",MELBOURNE VIC 3000,2.0,1.0,1.0,,latrobe-valley-vicwangaratta-vic,-37.8065731,144.9628193
,,395.0,"304A Mowbray River Road,",MOWBRAY QLD 4877,1.0,1.0,1.0,"40,350m²",latrobe-valley-vicwangaratta-vic,-16.5492232,145.4724547
,,720.0,"78 Arthur Street,",FORTITUDE VALLEY QLD 4006,2.0,2.0,1.0,,latrobe-valley-vicwangaratta-vic,-27.4605268,153.0383566
,,670.0,"30 Healey Drive,",EPPING VIC 3076,5.0,2.0,8.0,500m²,latrobe-valley-vicwangaratta-vic,-37.6360961,145.0382555
,,670.0,"24 Willan Drive,",CARTWRIGHT NSW 2168,4.0,2.0,2.0,,latrobe-valley-vicwangaratta-vic,-33.9257385,150.8951802
,,950.0,"7/398 Elgar Road,",BOX HILL VIC 3128,4.0,4.0,1.0,,latrobe-valley-vicwangaratta-vic,-37.8177032,145.1149333
,,730.0,"307 Lord Street,",BEECHBORO WA 6063,3.0,1.0,1.0,891m²,latrobe-valley-vicwangaratta-vic,-31.8663963,115.9547338
,,580.0,"30/6A Valley Road,",HALLS HEAD WA 6210,3.0,2.0,1.0,,latrobe-valley-vicwangaratta-vic,-32.5245727,115.7004219
,,680.0,"1 Gaara Close,",MACKSVILLE NSW 2447,4.0,2.0,2.0,,latrobe-valley-vicwangaratta-vic,-30.7078,152.92029
,,600.0,"204/150 Great Eastern Highway,",ASCOT WA 6104,1.0,1.0,1.0,,latrobe-valley-vicwangaratta-vic,-31.9326052,115.9407868
,,550.0,"4 Attunga Street,",SUN VALLEY QLD 4680,3.0,2.0,3.0,,latrobe-valley-vicwangaratta-vic,-23.8736231,151.2565496
,,750.0,"52 Roberts Road,",AIRPORT WEST VIC 3042,4.0,3.0,1.0,,latrobe-valley-vicwangaratta-vic,-37.7262244,144.8813592
,,700.0,"349/1000 Ann Street,",FORTITUDE VALLEY QLD 4006,1.0,1.0,1.0,,latrobe-valley-vicwangaratta-vic,-27.4517165,153.0408796
,,400.0,"22 Langford Street,",MORWELL VIC 3840,3.0,2.0,1.0,750m²,latrobe-valley-vicwangaratta-vic,-38.2372635,146.3863894
,,680.0,"3/1 Latona Avenue,",CALOUNDRA QLD 4551,2.0,2.0,1.0,,latrobe-valley-vicwangaratta-vic,-26.8066629,153.1336737
,,445.0,"2/9 Aberdeen Street,",ABERFELDIE VIC 3040,2.0,1.0,2.0,,latrobe-valley-vicwangaratta-vic,-37.7561989,144.9006573
,,650.0,"7/2-8 Palmerston Street,",ST JAMES WA 6102,3.0,1.0,1.0,,latrobe-valley-vicwangaratta-vic,1.06911,109.66393
,,620.0,"101/19 Moore St,",MOONEE PONDS VIC 3039,2.0,2.0,1.0,,latrobe-valley-vicwangaratta-vic,-37.7685092,144.9200385
,,550.0,"30 Curtin Street,",EAST MAITLAND NSW 2323,3.0,1.0,1.0,,latrobe-valley-vicwangaratta-vic,-32.7586474,151.5978009
,,600.0,"30 Weemala Place,",MUSWELLBROOK NSW 2333,4.0,2.0,2.0,837m²,latrobe-valley-vicwangaratta-vic,-32.2851369,150.9052058
,,300.0,"59/62 Seaview Avenue,",WIRRINA COVE SA 5204,2.0,2.0,1.0,,latrobe-valley-vicwangaratta-vic,-35.5036914,138.247924
,,600.0,"12 Melaleuca Drive,",YAMBA NSW 2464,3.0,2.0,2.0,,latrobe-valley-vicwangaratta-vic,-29.4220093,153.3276023
,,550.0,"8 Morven Street,",MACLEAN NSW 2463,4.0,2.0,1.0,,latrobe-valley-vicwangaratta-vic,-29.4549899,153.1987842
,,280.0,"28A Park Avenue,",NURIOOTPA SA 5355,2.0,1.0,1.0,,latrobe-valley-vicwangaratta-vic,-34.4698807,138.9990044
,,950.0,"19A Vaynor Street,",NIDDRIE VIC 3042,4.0,3.0,1.0,,latrobe-valley-vicwangaratta-vic,-37.7448572,144.8879266
,,570.0,"79A Riverslea Boulevard,",TRARALGON VIC 3844,4.0,2.0,2.0,,latrobe-valley-vicwangaratta-vic,-38.179134,146.512724
,,440.0,"251 Mathieson Street,",BELLBIRD NSW 2325,2.0,1.0,,,latrobe-valley-vicwangaratta-vic,-32.8528395,151.32772
,,380.0,"7 Townsend Street,",CHURCHILL VIC 3842,3.0,1.0,,,latrobe-valley-vicwangaratta-vic,-38.3113044,146.4112227
,,450.0,"1/39B Rutherford Road,",MUSWELLBROOK NSW 2333,3.0,2.0,1.0,,latrobe-valley-vicwangaratta-vic,-32.2824421,150.8952584
,,700.0,"3 Timor Cl,",BURWOOD VIC 3125,3.0,2.0,2.0,,latrobe-valley-vicwangaratta-vic,-37.843169,145.1065259
,,850.0,"104/8 Sydenham Street,",MOONEE PONDS VIC 3039,2.0,2.0,1.0,,latrobe-valley-vicwangaratta-vic,-37.7656567,144.917755
,,535.0,"4/57 Holmes Road,",MOONEE PONDS VIC 3039,2.0,1.0,1.0,,latrobe-valley-vicwangaratta-vic,-37.7664849,144.9186215
,,780.0,"5/48 Oxley Rd,",HAWTHORN VIC 3122,3.0,2.0,2.0,,latrobe-valley-vicwangaratta-vic,-37.824108,145.035345
,,,"4 Roedean Street,",BENNETT SPRINGS WA 6063,3.0,2.0,2.0,,latrobe-valley-vicwangaratta-vic,-31.8548609,115.954348
,,550.0,"210/8 Burrowes Street,",ASCOT VALE VIC 3032,1.0,1.0,1.0,,latrobe-valley-vicwangaratta-vic,-37.7787644,144.9140331
,,300.0,"2/7 Wallace Ave,",LENAH VALLEY TAS 7008,1.0,1.0,1.0,,latrobe-valley-vicwangaratta-vic,-42.8629884,147.2781518
,,380.0,"22a Collett Circuit,",APPIN NSW 2560,1.0,1.0,,,latrobe-valley-vicwangaratta-vic,-34.1858297,150.7905822
,,675.0,"5 Streldon Avenue,",STRATHMORE VIC 3041,4.0,2.0,2.0,,latrobe-valley-vicwangaratta-vic,-37.723881,144.9104064
,,900.0,"6 Lerra Road,",WINDELLA NSW 2320,5.0,2.0,6.0,"5,721m²",latrobe-valley-vicwangaratta-vic,-32.69338,151.478783
,,450.0,"16 First Street,",DUBLIN SA 5501,2.0,1.0,2.0,,latrobe-valley-vicwangaratta-vic,-34.4533058,138.353254
,,625.0,"3/28 Sandown Road,",ASCOT VALE VIC 3032,2.0,1.0,1.0,,latrobe-valley-vicwangaratta-vic,-37.783125,144.9195038
,,355.0,"239/386 Burwood Highway,",BURWOOD VIC 3125,1.0,1.0,,,latrobe-valley-vicwangaratta-vic,-37.8498,145.119
,,650.0,"23 Wanaruah Circuit,",MUSWELLBROOK NSW 2333,3.0,2.0,2.0,552m²,latrobe-valley-vicwangaratta-vic,-32.2901619,150.9106978
,,480.0,"1 Tennant St,",BELLBIRD NSW 2325,3.0,1.0,,,latrobe-valley-vicwangaratta-vic,-32.8564154,151.3139689
,,390.0,"4/412A Wilson Street,",BALLARAT EAST VIC 3350,3.0,1.0,1.0,,ballarat-vic,-37.5292,143.8591
,,380.0,"6/406 Lower Heidelberg Road,",EAGLEMONT VIC 3084,1.0,1.0,1.0,100m²,ballarat-vic,-37.7658239,145.0670583
,,460.0,"65 Presentation Boulevard,",WINTER VALLEY VIC 3358,4.0,2.0,2.0,,ballarat-vic,-37.5700121,143.7909325
,,700.0,"35/174 Peel Street,",WINDSOR VIC 3181,2.0,2.0,1.0,,ballarat-vic,-37.853,144.9929
,,590.0,"8 Tynong Street,",CROYDON VIC 3136,3.0,1.0,1.0,877m²,ballarat-vic,-37.7875726,145.2787375
,,600.0,"233 Nerrina Road,",NERRINA VIC 3350,5.0,2.0,2.0,,ballarat-vic,-37.5427819,143.8799012
,,610.0,"66 Masada Boulevard,",SMYTHES CREEK VIC 3351,3.0,2.0,6.0,,ballarat-vic,-37.6116,143.585
,,550.0,"31 Martland Street,",LUCAS VIC 3350,4.0,3.0,2.0,,ballarat-vic,-37.5526935,143.7838179
,,475.0,"16 St Michaels Place,",LAKE GARDENS VIC 3355,3.0,2.0,2.0,,ballarat-vic,-37.5477751,143.8196645
,,500.0,"402 Ripon Street,",BALLARAT CENTRAL VIC 3350,3.0,2.0,2.0,,ballarat-vic,-37.5601373,143.8413834
,,380.0,"4/4 Wood Street,",SOLDIERS HILL VIC 3350,2.0,1.0,1.0,,ballarat-vic,-37.5438928,143.8520901
,,470.0,"17 Leitrim Street,",ALFREDTON VIC 3350,4.0,2.0,2.0,,ballarat-vic,-37.5659401,143.7994195
,,400.0,"10 Eddy St,",GOLDEN POINT VIC 3350,3.0,1.0,1.0,559m²,ballarat-vic,-37.5677294,143.8627194
,,350.0,"1 Domain Gardens,",SEBASTOPOL VIC 3356,2.0,1.0,1.0,,ballarat-vic,-37.5832746,143.8361439
,,500.0,"4 Waugh Street,",ROCKBANK VIC 3335,4.0,2.0,2.0,,ballarat-vic,-37.7329611,144.6498316
,,380.0,"11 Monash Place,",CANADIAN VIC 3350,2.0,2.0,1.0,,ballarat-vic,-37.5915199,143.8677091
,,995.0,"122A Sussex Street,",EAST VICTORIA PARK WA 6101,4.0,2.0,2.0,,ballarat-vic,-31.9838389,115.9009195
,,465.0,"7 Bella Terrace,",BAKERY HILL VIC 3350,3.0,2.0,2.0,,ballarat-vic,-37.5292,143.8591
,,420.0,"14 Mauger Street,",WENDOUREE VIC 3355,3.0,2.0,2.0,,ballarat-vic,-37.5230734,143.8273961
,,475.0,"11 Mullingar Drive,",ALFREDTON VIC 3350,4.0,2.0,2.0,,ballarat-vic,-37.5646449,143.8006421
,,300.0,"2/606 Lydiard St North,",SOLDIERS HILL VIC 3350,2.0,1.0,1.0,,ballarat-vic,-37.5554475,143.8589853
,,355.0,"316/133 Droop Street,",FOOTSCRAY VIC 3011,1.0,1.0,,,ballarat-vic,-37.7995,144.8963
,,380.0,"2 Ivanhoe Street,",WENDOUREE VIC 3355,3.0,1.0,1.0,,ballarat-vic,-37.5239833,143.8283263
,,630.0,"52 Ballarat Street,",YARRAVILLE VIC 3013,2.0,1.0,,,ballarat-vic,-37.8210635,144.8900742
,,600.0,"6 Athena Way,",STRATHFIELDSAYE VIC 3551,5.0,2.0,2.0,,ballarat-vic,-36.7975232,144.3400794
,,440.0,"61 Steamboat Avenue,",WINTER VALLEY VIC 3358,4.0,2.0,2.0,,ballarat-vic,-37.5857203,143.796674
,,490.0,"933 Ballarat Road,",DEER PARK VIC 3023,3.0,1.0,1.0,,ballarat-vic,-37.7714341,144.784497
,,480.0,"8 Chorley Street,",STRATHTULLOH VIC 3338,4.0,2.0,1.0,,ballarat-vic,-37.7236822,144.596732
,,510.0,"7 Waler Street,",AINTREE VIC 3336,3.0,2.0,2.0,,ballarat-vic,-37.72042,144.6689989
,,300.0,"11/901 Gregory Street,",LAKE WENDOUREE VIC 3350,2.0,1.0,1.0,,ballarat-vic,-37.5409194,143.8221019
,,750.0,"178 Nicholson St,",BRUNSWICK EAST VIC 3057,2.0,1.0,1.0,247m²,ballarat-vic,-37.7654728,144.9805539
,,800.0,"5 Lythgo Court,",CARDIGAN VIC 3352,4.0,2.0,6.0,"2,000m²",ballarat-vic,-37.5335567,143.7755869
,,680.0,"10/8 Riversdale Road,",BURSWOOD WA 6100,1.0,1.0,1.0,,ballarat-vic,-31.9563359,115.9000791
,,500.0,"21 Merino Drive,",ALFREDTON VIC 3350,4.0,2.0,2.0,,ballarat-vic,-37.5580064,143.7955563
,,450.0,"310 Skipton Street,",BALLARAT CENTRAL VIC 3350,3.0,2.0,1.0,,ballarat-vic,-37.5679631,143.8539386
,,450.0,"601/150 Dudley St,",WEST MELBOURNE VIC 3003,,1.0,1.0,,ballarat-vic,-37.8101,144.95
,,480.0,"2/22 Summerhill Road,",FOOTSCRAY VIC 3011,2.0,1.0,1.0,,ballarat-vic,-37.7966362,144.8816105
,,420.0,"195-197 Howe Street,",MINERS REST VIC 3352,3.0,1.0,6.0,,ballarat-vic,-37.4900065,143.8046455
,,360.0,"2/716 Gregory Street,",SOLDIERS HILL VIC 3350,2.0,2.0,1.0,,ballarat-vic,-37.5454297,143.8593153
,,430.0,"21 Eucalyptus Court,",BEAUFORT VIC 3373,3.0,2.0,2.0,,ballarat-vic,-37.4318032,143.3695539
,,800.0,"3 Evergreen Drive,",ALFREDTON VIC 3350,5.0,3.0,2.0,,ballarat-vic,-37.5458624,143.8063923
,,400.0,"324 Lyons Street South,",BALLARAT CENTRAL VIC 3350,4.0,1.0,1.0,293m²,ballarat-vic,-37.570432,143.8502103
,,450.0,"58 Broadway,",ELWOOD VIC 3184,1.0,1.0,,,ballarat-vic,-37.8768281,144.9835959
,,480.0,"11 Millbrook Road,",BONSHAW VIC 3352,4.0,2.0,2.0,496m²,ballarat-vic,-37.8167,143.7667
,,340.0,"1 Pozieres Place,",SEBASTOPOL VIC 3356,2.0,2.0,1.0,221m²,ballarat-vic,-37.5944823,143.8323421
,,290.0,"8 Warbler Court,",WINTER VALLEY VIC 3358,3.0,3.0,2.0,,ballarat-vic,-37.5746654,143.7842517
,,370.0,"12 YARRA PARK DRIVE,",SEBASTOPOL VIC 3356,3.0,1.0,1.0,,ballarat-vic,-37.5935694,143.8264325
,,360.0,"1/808 Humffray Street South,",MOUNT PLEASANT VIC 3350,2.0,1.0,1.0,,ballarat-vic,-37.5754413,143.8515618
,,650.0,"512/668 Swanston Street,",CARLTON VIC 3053,1.0,1.0,1.0,,ballarat-vic,-37.8004,144.9684
,,800.0,"71 Primes Court,",BALLIANG VIC 3340,17.0,,,,ballarat-vic,-37.8045126,144.381106
,,400.0,"106 Daylesford Road,",BROWN HILL VIC 3350,3.0,1.0,2.0,,ballarat-vic,-37.5502136,143.9064362
,,450.0,"815 Doveton St North,",SOLDIERS HILL VIC 3350,3.0,2.0,1.0,,ballarat-vic,-37.5551087,143.855996
,,320.0,"4/222 Drummond St South,",BALLARAT CENTRAL VIC 3350,1.0,1.0,,,ballarat-vic,-37.5690455,143.8459382
,,430.0,"62 Yarrowee Street,",SEBASTOPOL VIC 3356,4.0,2.0,4.0,713m²,ballarat-vic,-37.59274,143.8429766
,,460.0,"60 Snowbird Road,",WINTER VALLEY VIC 3358,4.0,2.0,2.0,,ballarat-vic,-37.585003,143.7975078
,,410.0,"923A Geelong Road,",CANADIAN VIC 3350,3.0,2.0,2.0,,ballarat-vic,-37.5850948,143.8675749
,,500.0,"12 Cassowary Way,",WINTER VALLEY VIC 3358,4.0,2.0,2.0,,ballarat-vic,-37.5711743,143.7989562
,,470.0,"12 Beartooth Drive,",WINTER VALLEY VIC 3358,4.0,2.0,2.0,504m²,ballarat-vic,-37.5881163,143.7962219
,,490.0,"33 Walters Way,",ALFREDTON VIC 3350,4.0,2.0,2.0,,ballarat-vic,-37.5292,143.8591
,,480.0,"4 Parbury Avenue,",LAKE GARDENS VIC 3355,4.0,2.0,2.0,,ballarat-vic,-37.5448119,143.8134584
,,420.0,"16 Lal Lal Street,",GOLDEN POINT VIC 3350,3.0,1.0,2.0,,ballarat-vic,-37.5750086,143.8691425
,,450.0,"9 Latitude Court,",BALLARAT EAST VIC 3350,3.0,1.0,2.0,,ballarat-vic,-37.5681448,143.8735715
,,650.0,"4 Crawley Court,",VIEWBANK VIC 3084,3.0,2.0,2.0,,ballarat-vic,-37.7362938,145.0917212
,,490.0,"37 Sunset Boulevard,",JACANA VIC 3047,3.0,1.0,,639m²,ballarat-vic,-37.6911121,144.9154098
,,750.0,"77 Hemingway Drive,",ROCKBANK VIC 3335,5.0,5.0,2.0,,ballarat-vic,-37.7357449,144.6650069
,,470.0,"15 Overall St,",LUCAS VIC 3350,4.0,2.0,2.0,392m²,ballarat-vic,-37.5489275,143.7690668
,,640.0,"2 Wigan Close,",WOLLERT VIC 3750,4.0,2.0,4.0,,ballarat-vic,-37.6169595,145.0240561
,,510.0,"170 McDonalds Road,",CLUNES VIC 3370,4.0,2.0,4.0,,ballarat-vic,-37.2596041,143.7706205
,,325.0,"4/1110 Howitt Street,",WENDOUREE VIC 3355,2.0,1.0,1.0,,ballarat-vic,-37.5389889,143.8223762
,,430.0,"186 Majestic Way,",WINTER VALLEY VIC 3358,4.0,2.0,2.0,,ballarat-vic,-37.576832,143.7954541
,,300.0,"3 Duke Street,",NEWINGTON VIC 3350,2.0,1.0,,,ballarat-vic,-37.5633155,143.8362278
,,590.0,"107/19 Irving Ave,",BOX HILL VIC 3128,2.0,1.0,1.0,,ballarat-vic,-37.8158711,145.1222744
,,,"1301/557 Little Lonsdale St,",MELBOURNE VIC 3000,1.0,1.0,,,ballarat-vic,-37.8109981,144.9628452
,,580.0,"5/59 Tooronga Rd,",MALVERN EAST VIC 3145,2.0,1.0,1.0,"1,091m²",ballarat-vic,-37.8734046,145.0383518
,,460.0,"3 Electro Street,",WINTER VALLEY VIC 3358,4.0,2.0,2.0,406m²,ballarat-vic,-37.588485,143.8041054
,,460.0,"7 Electro Street,",WINTER VALLEY VIC 3358,4.0,2.0,2.0,406m²,ballarat-vic,-37.588485,143.8041054
,,750.0,"193 Mount Buninyong Road,",BUNINYONG VIC 3357,3.0,2.0,8.0,,ballarat-vic,-37.6494811,143.9203609
,,440.0,"30 Holgate Road,",LUCAS VIC 3350,4.0,2.0,2.0,538m²,ballarat-vic,-37.5509218,143.7775805
,,395.0,"306 Doveton Street North,",SOLDIERS HILL VIC 3350,2.0,1.0,2.0,,ballarat-vic,-37.5551087,143.855996
,,250.0,"1/2 Aubrey Street,",WENDOUREE VIC 3355,2.0,1.0,1.0,,ballarat-vic,-37.5286077,143.8285602
,,310.0,"4/13 Beverin Street,",SEBASTOPOL VIC 3356,2.0,1.0,1.0,,ballarat-vic,-37.5855786,143.8395484
,,520.0,"106/501-503 Plenty Road,",PRESTON VIC 3072,2.0,2.0,1.0,,ballarat-vic,-37.75,145.0167
,,380.0,"7 Kelvin Avenue,",SEBASTOPOL VIC 3356,3.0,1.0,1.0,628m²,ballarat-vic,-37.6001826,143.837982
,,580.0,"15/163 Hubert Street,",EAST VICTORIA PARK WA 6101,2.0,1.0,1.0,,ballarat-vic,-31.9907764,115.9106969
,,550.0,"4 Henderson Drive,",TARNEIT VIC 3029,4.0,2.0,2.0,,ballarat-vic,-37.8433637,144.6426152
,,580.0,".20 Kosa Avenue,",SUNSHINE WEST VIC 3020,3.0,2.0,2.0,,ballarat-vic,-37.7950931,144.7920516
,,450.0,"52 Napier Street,",CRESWICK VIC 3363,3.0,1.0,1.0,,ballarat-vic,-37.4297689,143.8926735
,,450.0,"6 Prophecy Road,",BONSHAW VIC 3352,4.0,2.0,2.0,,ballarat-vic,-37.8167,143.7667
,,400.0,"1015 Grevillea Rd,",WENDOUREE VIC 3355,3.0,1.0,3.0,,ballarat-vic,-37.5286032,143.8397475
,,500.0,"1/1306 Mair Street,",LAKE WENDOUREE VIC 3350,2.0,1.0,1.0,,ballarat-vic,-37.5585552,143.8476147
,,520.0,"40 Olympic Avenue,",MOUNT CLEAR VIC 3350,4.0,2.0,2.0,,ballarat-vic,-37.6095444,143.8699794
,,800.0,"70 Cobram Drive,",EYNESBURY VIC 3338,5.0,3.0,2.0,,ballarat-vic,-37.7855923,144.5538346
,,350.0,"113 Clyde Street,",BALLARAT CENTRAL VIC 3350,2.0,1.0,1.0,,ballarat-vic,-37.5292,143.8591
,,510.0,"116 Ballarat Road,",HAMLYN HEIGHTS VIC 3215,3.0,1.0,1.0,,ballarat-vic,-38.1305194,144.3422884
,,465.0,"1/381 Middleborough Road,",BOX HILL VIC 3128,2.0,1.0,,,ballarat-vic,-37.8199145,145.1382926
,,360.0,"4/1120 Geelong Road,",MOUNT CLEAR VIC 3350,3.0,2.0,2.0,,ballarat-vic,-37.6026609,143.8686287
,,460.0,"1610/6 Leicester Street,",CARLTON VIC 3053,1.0,1.0,,,ballarat-vic,-37.802198,144.9607524
,,430.0,"404D Drummond Street North,",BALLARAT CENTRAL VIC 3350,3.0,1.0,2.0,,ballarat-vic,-37.5573618,143.8480854
,,430.0,"6 Buniya Street,",BONSHAW VIC 3352,3.0,2.0,2.0,,ballarat-vic,-37.601334,143.8168445
,,480.0,"12 Maloney Street,",LUCAS VIC 3350,4.0,2.0,2.0,,ballarat-vic,-37.5486689,143.7635681
,,1075.0,"42 Fairview Rd,",MOUNT WAVERLEY VIC 3149,5.0,2.0,2.0,,ballarat-vic,-37.8667417,145.1164592
,,580.0,"20 Bent Street,",BUNDOORA VIC 3083,4.0,1.0,1.0,,ballarat-vic,-37.6979816,145.0597269
,,360.0,"12 Newhaven Close,",MOUNT PLEASANT VIC 3350,3.0,1.0,1.0,,ballarat-vic,-37.5806987,143.8531492
,,420.0,"358 Dean-Newlyn Rd,",DEAN VIC 3363,4.0,2.0,2.0,,ballarat-vic,-37.4554588,143.9872232
,,450.0,"7 Sprinter Way,",WINTER VALLEY VIC 3358,4.0,2.0,2.0,476m²,ballarat-vic,-37.5728953,143.7891992
,,975.0,"506/1 Dank Street West,",PORT MELBOURNE VIC 3207,3.0,1.0,2.0,,ballarat-vic,-37.8329,144.922
,,650.0,"79 Ardmillan Rd,",MOONEE PONDS VIC 3039,3.0,1.0,2.0,,ballarat-vic,-37.7629189,144.9092671
,,,"1302/557 Little Lonsdale St,",MELBOURNE VIC 3000,1.0,1.0,,,ballarat-vic,-37.8109981,144.9628452
,,290.0,"4/7-9 Ningana Street,",ALFREDTON VIC 3350,1.0,1.0,1.0,,ballarat-vic,-37.5292,143.8591
,,390.0,"15 Jordy Pl,",BROWN HILL VIC 3350,3.0,1.0,1.0,,ballarat-vic,-37.5539957,143.8916382
,,,"133 Nelson Rd,",BOX HILL NORTH VIC 3129,3.0,1.0,2.0,,ballarat-vic,-37.8125881,145.1202218
,,420.0,"708 Doveton St N,",SOLDIERS HILL VIC 3350,3.0,1.0,1.0,,ballarat-vic,-37.5551087,143.855996
,,650.0,"11 Bangalay Place,",POINT COOK VIC 3030,4.0,2.0,2.0,572m²,ballarat-vic,-37.9030495,144.747281
,,550.0,"26 Mellish Street,",LUCAS VIC 3350,4.0,2.0,2.0,,ballarat-vic,-37.5435604,143.782547
,,530.0,"701/6 Leicester Street,",CARLTON VIC 3053,2.0,1.0,,,ballarat-vic,-37.802198,144.9607524
,,360.0,"7 Linton Court,",ALFREDTON VIC 3350,3.0,1.0,1.0,,ballarat-vic,-37.5505476,143.8004197
,,280.0,"Room 6/9 Nyora Grove,",MOUNT HELEN VIC 3350,1.0,1.0,,,ballarat-vic,-37.5292,143.8591
,,330.0,"4/118 Grant Street,",SEBASTOPOL VIC 3356,2.0,1.0,1.0,,ballarat-vic,-37.5986925,143.8315667
,,500.0,"9 Kerala Street,",ROCKBANK VIC 3335,4.0,2.0,1.0,,ballarat-vic,-37.7427695,144.6662207
,,480.0,"817 18-28 Albert Street,",FOOTSCRAY VIC 3011,2.0,1.0,1.0,,ballarat-vic,-37.7995,144.8963
,,3500.0,"28 Janelle Way,",OCEAN GROVE VIC 3226,3.0,2.0,4.0,600m²,ballarat-vic,-38.2485008,144.5553815
,,510.0,"46 Bluebottle Parade,",ROCKBANK VIC 3335,4.0,2.0,2.0,,ballarat-vic,-37.7444148,144.6467109
,,335.0,"235/386 Burwood Highway,",BURWOOD VIC 3125,1.0,1.0,,,ballarat-vic,-37.8498,145.119
,,320.0,"1/8 Aquila Court,",BALLARAT NORTH VIC 3350,1.0,1.0,1.0,,ballarat-vic,-37.5439491,143.8700279
,,450.0,"53 Beartooth Dr,",WINTER VALLEY VIC 3358,4.0,2.0,2.0,,ballarat-vic,-37.5881163,143.7962219
,,450.0,"25 Aspen Street,",WINTER VALLEY VIC 3358,4.0,2.0,2.0,,ballarat-vic,-37.5865051,143.7956084
,,450.0,"9 Bowerbird Grange,",WINTER VALLEY VIC 3358,4.0,2.0,2.0,312m²,ballarat-vic,-37.5759195,143.7833508
,,570.0,"2508/31 A'Beckett St,",MELBOURNE VIC 3000,1.0,1.0,1.0,,ballarat-vic,-37.814,144.9633
,,365.0,"325 Lydiard Street North,",SOLDIERS HILL VIC 3350,3.0,1.0,,,ballarat-vic,-37.5554475,143.8589853
,,450.0,"412 Sturt Street,",BALLARAT CENTRAL VIC 3350,3.0,2.0,1.0,,ballarat-vic,-37.5601637,143.8412359
,,450.0,"53 Parkview Drive,",ALFREDTON VIC 3350,3.0,2.0,2.0,,ballarat-vic,-37.5507558,143.7871132
,,400.0,"61 Yarrowee St,",SEBASTOPOL VIC 3356,3.0,1.0,4.0,623m²,ballarat-vic,-37.59274,143.8429766
,,550.0,"15 Westbury Ave,",ROCKBANK VIC 3335,5.0,2.0,2.0,512m²,ballarat-vic,-37.7420647,144.6662495
,,380.0,"9 Lovenear Grove,",BALLARAT EAST VIC 3350,3.0,1.0,1.0,612m²,ballarat-vic,-37.5707471,143.8831189
,,430.0,"2 Berrigan Drive,",BONSHAW VIC 3352,4.0,2.0,2.0,,ballarat-vic,-37.5966927,143.8231632
,,360.0,"101 Beverin Street,",SEBASTOPOL VIC 3356,3.0,1.0,2.0,,ballarat-vic,-37.5855786,143.8395484
,,365.0,"8 Malcolm Court,",BROWN HILL VIC 3350,2.0,1.0,1.0,,ballarat-vic,-37.556198,143.8967764
,,310.0,"3/12 Brophy Street,",BROWN HILL VIC 3350,2.0,1.0,1.0,,ballarat-vic,-37.5538725,143.8955132
,,430.0,"27 Fraser Street,",MOUNT PLEASANT VIC 3350,4.0,2.0,2.0,,ballarat-vic,-37.5813297,143.8588241
,,470.0,"123 Doodts Rd,",BALLARAT NORTH VIC 3350,4.0,2.0,4.0,,ballarat-vic,-37.5385041,143.8803845
,,460.0,"14/24 Rooney Street,",MAIDSTONE VIC 3012,2.0,1.0,1.0,,ballarat-vic,-37.7846126,144.8714594
,,465.0,"1/34 Learmonth St,",ALFREDTON VIC 3350,2.0,1.0,1.0,,ballarat-vic,-37.5568868,143.8128661
,,440.0,"2 Dianne Court,",CANADIAN VIC 3350,4.0,2.0,1.0,,ballarat-vic,-37.5906435,143.8648513
,,540.0,"4 Kinnane Court,",BALLARAT NORTH VIC 3350,5.0,2.0,2.0,796m²,ballarat-vic,-37.5389549,143.8633019
,,430.0,"11 Goldsborough Street,",BONSHAW VIC 3352,4.0,2.0,2.0,,ballarat-vic,-37.8167,143.7667
,,350.0,"18 Crompton Street,",SOLDIERS HILL VIC 3350,2.0,1.0,2.0,,ballarat-vic,-37.5432189,143.8552279
,,410.0,"2/11 Walton Street,",WENDOUREE VIC 3355,2.0,1.0,,,ballarat-vic,-37.5295627,143.8413349
,,,"702/845-851 Whitehorse Rd,",BOX HILL VIC 3128,3.0,2.0,1.0,,ballarat-vic,-37.8256,145.1232
,,750.0,"35/1 Flagstaff Lane,",WEST MELBOURNE VIC 3003,2.0,2.0,1.0,,ballarat-vic,-37.8095186,144.9519321
,,450.0,"10 Windermere Street,",BALLARAT CENTRAL VIC 3350,3.0,1.0,1.0,,ballarat-vic,-37.5674626,143.8447312
,,560.0,"1006/545 Station St,",BOX HILL VIC 3128,1.0,1.0,1.0,,ballarat-vic,-37.8256,145.1232
,,480.0,"16 Zoe Street,",ROCKBANK VIC 3335,3.0,2.0,2.0,,ballarat-vic,-37.7349313,144.6608428
,,400.0,"203a MacArthur Street,",SOLDIERS HILL VIC 3350,3.0,1.0,1.0,,ballarat-vic,-37.5514432,143.8623622
,,280.0,"2/45 Otway Street South,",BALLARAT EAST VIC 3350,1.0,1.0,1.0,,ballarat-vic,-37.5646935,143.876099
,,475.0,"19 Dromana Street,",ALFREDTON VIC 3350,3.0,2.0,2.0,,ballarat-vic,-37.5604728,143.8098604
,,450.0,"1795 Sturt Street,",ALFREDTON VIC 3350,3.0,2.0,2.0,,ballarat-vic,-37.5423979,143.7873866
,,590.0,"409/2 Hallenstein Street,",FOOTSCRAY VIC 3011,2.0,2.0,1.0,,ballarat-vic,-37.7998253,144.9080515
,,510.0,"1 Blande Court,",LARA VIC 3212,3.0,2.0,2.0,,ballarat-vic,-38.0266872,144.4149844
,,,"44/145 Canterbury Road,",TOORAK VIC 3142,1.0,1.0,,,ballarat-vic,-37.8432666,145.0103739
,,450.0,"5 Zeal Road,",WINTER VALLEY VIC 3358,4.0,2.0,2.0,,ballarat-vic,-37.5867539,143.8053209
,,460.0,"50 Steamboat Avenue,",WINTER VALLEY VIC 3358,4.0,2.0,2.0,,ballarat-vic,-37.5857203,143.796674
,,475.0,"16 Verdale Drive,",ALFREDTON VIC 3350,4.0,2.0,2.0,,ballarat-vic,-37.56499,143.7872425
,,450.0,"19/906 Lydiard Street North,",BALLARAT CENTRAL VIC 3350,2.0,2.0,1.0,,ballarat-vic,-37.5292,143.8591
,,330.0,"38 Grammar Street,",WENDOUREE VIC 3355,2.0,1.0,1.0,,ballarat-vic,-37.5373616,143.8340454
,,360.0,"1/2 Vale Street,",ALFREDTON VIC 3350,2.0,1.0,1.0,,ballarat-vic,-37.5556947,143.8161711
,,315.0,"10/114 Lydiard Street North,",BALLARAT CENTRAL VIC 3350,1.0,1.0,1.0,,ballarat-vic,-37.5582631,143.8584781
,,360.0,"4/14-16 Morgan Street,",SEBASTOPOL VIC 3356,2.0,1.0,1.0,,ballarat-vic,-37.5853,143.8395
,,200.0,"1/2793 Old Melbourne Road,",DUNNSTOWN VIC 3352,1.0,1.0,1.0,,ballarat-vic,-37.8167,143.7667
,,800.0,"1806/408 Spencer Street,",WEST MELBOURNE VIC 3003,2.0,2.0,1.0,,ballarat-vic,-37.8101,144.95
,,385.0,"9/1010 Geelong Road,",CANADIAN VIC 3350,3.0,1.0,1.0,,ballarat-vic,-37.5292,143.8591
,,300.0,"4/31 Beverin Street,",SEBASTOPOL VIC 3356,2.0,1.0,1.0,,ballarat-vic,-37.5855786,143.8395484
,,450.0,"9 Kimball Street,",SMYTHES CREEK VIC 3351,4.0,2.0,2.0,,ballarat-vic,-37.5972884,143.8000918
,,350.0,"3/30 Victoria Street,",SEBASTOPOL VIC 3356,2.0,1.0,2.0,,ballarat-vic,-37.5987121,143.84085
,,375.0,"65 Hopetoun Street,",BALLARAT EAST VIC 3350,3.0,1.0,1.0,,ballarat-vic,-37.561337,143.8772604
,,450.0,"20 GRAPPENHALL AVENUE,",STRATHTULLOH VIC 3338,4.0,2.0,2.0,,ballarat-vic,-37.7296522,144.5947442
,,800.0,"1420 Sturt Street,",LAKE WENDOUREE VIC 3350,4.0,2.0,4.0,,ballarat-vic,-37.558683,143.8341706
,,420.0,"18 Eton Street,",WENDOUREE VIC 3355,3.0,1.0,3.0,,ballarat-vic,-37.5303065,143.83623
,,390.0,"122 Birdwood Avenue,",SEBASTOPOL VIC 3356,3.0,2.0,1.0,,ballarat-vic,-37.5976994,143.8316135
,,365.0,"38A Ebden Street,",BALLARAT EAST VIC 3350,3.0,1.0,1.0,,ballarat-vic,-37.55858,143.8661312
,,360.0,"28 Anderson West Street,",BALLARAT CENTRAL VIC 3350,2.0,1.0,,,ballarat-vic,-37.5674025,143.858758
,,530.0,"12 Hunter Street,",LUCAS VIC 3350,4.0,2.0,2.0,,ballarat-vic,-37.5501778,143.7841726
,,450.0,"23 Heathcote Drive,",LUCAS VIC 3350,4.0,2.0,2.0,,ballarat-vic,-37.5462547,143.7712673
,,420.0,"16 Ford St,",BALLARAT EAST VIC 3350,3.0,2.0,2.0,,ballarat-vic,-37.5647894,143.8756062
,,650.0,"606/12-14 Nelson Rd,",BOX HILL VIC 3128,2.0,2.0,1.0,,ballarat-vic,-37.8256,145.1232
,,335.0,"130/386 Burwood Highway,",BURWOOD VIC 3125,1.0,1.0,,,ballarat-vic,-37.8498,145.119
,,470.0,"30 Innsbruck Road,",WINTER VALLEY VIC 3358,4.0,2.0,2.0,518m²,ballarat-vic,-37.5855435,143.7934809
,,370.0,"22 Westcliffe Crescent,",SEBASTOPOL VIC 3356,3.0,1.0,1.0,193m²,ballarat-vic,-37.6087814,143.841266
,,430.0,"113 Edwards Street,",SEBASTOPOL VIC 3356,4.0,2.0,2.0,,ballarat-vic,-37.6012439,143.835915
,,420.0,"401 Drummond Street South,",BALLARAT CENTRAL VIC 3350,3.0,2.0,1.0,442m²,ballarat-vic,-37.5690455,143.8459382
,,780.0,"108 Muir Road,",MINERS REST VIC 3352,3.0,1.0,8.0,,ballarat-vic,-37.489023,143.8162574
,,430.0,"51 Cormorant Grange,",WINTER VALLEY VIC 3358,4.0,2.0,2.0,,ballarat-vic,-37.5786601,143.7843455
,,380.0,"2/826 Bond Street,",MOUNT PLEASANT VIC 3350,2.0,1.0,1.0,,ballarat-vic,-37.5743309,143.8548633
,,440.0,"15 Beartooth Drive,",WINTER VALLEY VIC 3358,4.0,2.0,2.0,,ballarat-vic,-37.5881163,143.7962219
,,450.0,"119 Ascot Gdns Drive,",BONSHAW VIC 3352,4.0,2.0,2.0,,ballarat-vic,-37.8167,143.7667
,,450.0,"26 Lakeland Drive,",LUCAS VIC 3350,3.0,2.0,2.0,,ballarat-vic,-37.5494655,143.7644728
,,500.0,"17 Lakeland Drive,",LUCAS VIC 3350,4.0,2.0,2.0,448m²,ballarat-vic,-37.5494655,143.7644728
,,595.0,"32 Victoria,",PRESTON VIC 3072,2.0,1.0,2.0,165m²,ballarat-vic,-37.75,145.0167
,,440.0,"26 Aspen Street,",WINTER VALLEY VIC 3358,4.0,2.0,2.0,,ballarat-vic,-37.5865051,143.7956084
,,590.0,"3 Masada Boulevard,",WINTER VALLEY VIC 3358,3.0,1.0,4.0,,ballarat-vic,-37.5859814,143.786671
,,550.0,"1 Lexton Rd,",BOX HILL NORTH VIC 3129,3.0,1.0,2.0,,ballarat-vic,-37.8121569,145.1364385
,,400.0,"60 Marie Crescent,",WENDOUREE VIC 3355,3.0,1.0,2.0,,ballarat-vic,-37.5248431,143.8370472
,,380.0,"14 Rorey Street,",DELACOMBE VIC 3356,3.0,1.0,2.0,,ballarat-vic,-37.5836544,143.8220361
,,395.0,"85 Bailey Street,",CLUNES VIC 3370,3.0,1.0,,,ballarat-vic,-37.2960443,143.7899393
,,330.0,"3 Spencer Street,",SEBASTOPOL VIC 3356,2.0,1.0,1.0,,ballarat-vic,-37.5901653,143.8378249
,,490.0,"20 Eleanor Drive,",LUCAS VIC 3350,4.0,2.0,2.0,,ballarat-vic,-37.5490147,143.7774703
,,320.0,"2/403 Barkly Street,",BUNINYONG VIC 3357,2.0,1.0,1.0,,ballarat-vic,-37.6451478,143.8837067
,,560.0,"20 Lemon St,",ALFREDTON VIC 3350,4.0,2.0,2.0,421m²,ballarat-vic,-37.5666278,143.7851496
,,350.0,"317/133 Droop Street,",FOOTSCRAY VIC 3011,1.0,1.0,,,ballarat-vic,-37.7995,144.8963
,,450.0,"11 Prophecy Road,",BONSHAW VIC 3352,4.0,2.0,2.0,,ballarat-vic,-37.8167,143.7667
,,395.0,"17/92 Grey St,",ST KILDA VIC 3182,,1.0,,30m²,ballarat-vic,-37.864,144.9814916
,,460.0,"96 Anglesea Street,",WINTER VALLEY VIC 3358,4.0,2.0,2.0,,ballarat-vic,-37.5737915,143.7901188
,,355.0,"213/133 Droop Street,",FOOTSCRAY VIC 3011,1.0,1.0,,,ballarat-vic,-37.7947538,144.8955019
,,470.0,"10 Jemacra Place,",MOUNT CLEAR VIC 3350,5.0,2.0,2.0,,ballarat-vic,-37.6053136,143.8723443
,,420.0,"14 Prince St,",CRESWICK VIC 3363,3.0,1.0,4.0,,ballarat-vic,-37.4123226,143.890769
,,395.0,"235 Kline Street,",BALLARAT EAST VIC 3350,3.0,1.0,,,ballarat-vic,-37.5698808,143.8852124
,,460.0,"123 Ascot Gardens Drive,",BONSHAW VIC 3352,4.0,2.0,2.0,448m²,ballarat-vic,-37.8167,143.7667
,,600.0,"25 Callanish Street,",TRUGANINA VIC 3029,4.0,2.0,2.0,,ballarat-vic,-37.814374,144.7136435
,,495.0,"104 Finchs Road,",SMYTHES CREEK VIC 3351,3.0,1.0,2.0,,ballarat-vic,-37.5978413,143.7493888
,,470.0,"20 Aspen Street,",WINTER VALLEY VIC 3358,4.0,2.0,2.0,,ballarat-vic,-37.5865051,143.7956084
,,330.0,"Room 1/9 Nyora Grove,",MOUNT HELEN VIC 3350,1.0,1.0,1.0,,ballarat-vic,-37.5292,143.8591
,,530.0,"8 Wattle St,",BOX HILL NORTH VIC 3129,3.0,1.0,2.0,,ballarat-vic,-37.8107889,145.119309
,,670.0,"9 Ballarat Street,",LALOR VIC 3075,4.0,2.0,2.0,,ballarat-vic,-37.6624985,145.0221824
,,1950.0,"112 Harold St,",MIDDLE PARK VIC 3206,4.0,3.0,2.0,,ballarat-vic,-37.8517675,144.9582035
,,530.0,"34 Lakeland Drive,",LUCAS VIC 3350,4.0,2.0,2.0,512m²,ballarat-vic,-37.5494655,143.7644728
,,438.0,"26/26 Beverin Street,",SEBASTOPOL VIC 3356,1.0,1.0,,,ballarat-vic,-37.5855786,143.8395484
,,1150.0,"280A Tucker Rd,",ORMOND VIC 3204,4.0,3.0,2.0,,ballarat-vic,-37.9066213,145.053271
,,525.0,"206 Gatehouse Place,",MARIBYRNONG VIC 3032,2.0,1.0,1.0,,ballarat-vic,-37.773624,144.8809804
,,500.0,"20 McNamee Boulevard,",LUCAS VIC 3350,4.0,2.0,2.0,,ballarat-vic,-37.5458108,143.7735896
,,310.0,"1/1110 Howitt Street,",WENDOUREE VIC 3355,2.0,1.0,1.0,,ballarat-vic,-37.5389889,143.8223762
,,360.0,"3 Kirk Street,",WENDOUREE VIC 3355,3.0,1.0,1.0,,ballarat-vic,-37.5348505,143.8334771
,,630.0,"2712/500 Elizabeth Street,",MELBOURNE VIC 3000,2.0,1.0,,,ballarat-vic,-37.7998626,144.9573647
,,405.0,"351 Vickers Street,",SEBASTOPOL VIC 3356,4.0,2.0,2.0,,ballarat-vic,-37.592841,143.8316264
,,620.0,"15 Leeward Drive,",TARNEIT VIC 3029,4.0,2.0,2.0,,ballarat-vic,-37.8612781,144.6469924
,,330.0,"10/45 Otway Street South,",BALLARAT EAST VIC 3350,2.0,1.0,1.0,,ballarat-vic,-37.5646935,143.876099
,,485.0,"5 Edwards Street,",SEBASTOPOL VIC 3356,5.0,2.0,2.0,,ballarat-vic,-37.6056195,143.8352968
,,380.0,"111 Campbells Crescent,",REDAN VIC 3350,3.0,1.0,2.0,,ballarat-vic,-37.578744,143.8447489
,,580.0,"7 Lauradan Way,",WOLLERT VIC 3750,4.0,2.0,2.0,,ballarat-vic,-37.6023219,145.0074468
,,510.0,"41 Holman Crescent,",BACCHUS MARSH VIC 3340,4.0,2.0,2.0,,ballarat-vic,-37.7199,144.3727
,,470.0,"3 Adrianus Street,",ALFREDTON VIC 3350,4.0,2.0,2.0,,ballarat-vic,-37.5642068,143.7855428
,,400.0,"21 Oberon Street,",ALFREDTON VIC 3350,3.0,2.0,2.0,,ballarat-vic,-37.5585223,143.7879964
,,500.0,"16 Perendale Street,",ALFREDTON VIC 3350,4.0,2.0,2.0,,ballarat-vic,-37.5596976,143.8006105
,,460.0,"16 Pontiac Drive,",SMYTHES CREEK VIC 3351,4.0,2.0,2.0,,ballarat-vic,-37.5923535,143.7987452
,,430.0,"5/20 Falcon Drive,",INVERMAY PARK VIC 3350,3.0,2.0,2.0,,ballarat-vic,-37.5276027,143.8650188
,,380.0,"21B Josephine Way,",SEBASTOPOL VIC 3356,3.0,2.0,1.0,,ballarat-vic,-37.5997493,143.8272979
,,460.0,"18 Brind Way,",LUCAS VIC 3350,4.0,2.0,2.0,,ballarat-vic,-37.5455481,143.7723117
,,250.0,"1/30 Browns Parade,",WENDOUREE VIC 3355,1.0,1.0,,,ballarat-vic,-37.5393945,143.836645
,,430.0,"16 Erskine Road,",WINTER VALLEY VIC 3358,3.0,2.0,2.0,,ballarat-vic,-37.5698038,143.7934265
,,525.0,"G11/110 Roberts Street,",WEST FOOTSCRAY VIC 3012,2.0,2.0,1.0,,ballarat-vic,-37.8302,144.8709
,,550.0,"11 Carina Court,",POINT COOK VIC 3030,4.0,2.0,,,ballarat-vic,-37.8923118,144.7242842
,,390.0,"520 Doveton Street North,",SOLDIERS HILL VIC 3350,3.0,1.0,2.0,,ballarat-vic,-37.5551087,143.855996
,,440.0,"4 Woodcutters Way,",BONSHAW VIC 3352,4.0,2.0,2.0,,ballarat-vic,-37.6009589,143.8209168
,,370.0,"107A Little Dodds Street,",GOLDEN POINT VIC 3350,1.0,1.0,,,ballarat-vic,-37.570855,143.8718472
,,370.0,"3/17 Yarrowee Street,",SEBASTOPOL VIC 3356,3.0,1.0,1.0,246m²,ballarat-vic,-37.59274,143.8429766
,,460.0,"39 Clovedale Avenue,",ALFREDTON VIC 3350,4.0,2.0,2.0,,ballarat-vic,-37.5568058,143.7854731
,,350.0,"108 Latrobe Street,",REDAN VIC 3350,3.0,1.0,,,ballarat-vic,-37.5292,143.8591
,,390.0,"4 Neill Street,",BEAUFORT VIC 3373,3.0,1.0,3.0,,ballarat-vic,-37.430011,143.3843706
,,570.0,"17 Falkirk Road,",NERRINA VIC 3350,4.0,2.0,2.0,,ballarat-vic,-37.5421366,143.8859246
,,470.0,"164 Majestic Way,",WINTER VALLEY VIC 3358,4.0,2.0,2.0,,ballarat-vic,-37.576832,143.7954541
,,210.0,"1/133 Raleigh Road,",MARIBYRNONG VIC 3032,1.0,1.0,,,ballarat-vic,-37.7690186,144.8863597
,,460.0,"6 Imperial Way,",CANADIAN VIC 3350,3.0,2.0,2.0,,ballarat-vic,-37.5891572,143.8740339
,,440.0,"235 Ballarat-Carngham Road,",WINTER VALLEY VIC 3358,4.0,2.0,2.0,,ballarat-vic,-37.5672048,143.7865339
,,670.0,"1/157 Wendouree Parade,",LAKE WENDOUREE VIC 3350,2.0,2.0,1.0,,ballarat-vic,-37.5466006,143.8444876
,,355.0,"1226 Grevillea Road,",WENDOUREE VIC 3355,3.0,1.0,,,ballarat-vic,-37.5261628,143.8212107
,,450.0,"10 Cassowary Way,",WINTER VALLEY VIC 3358,4.0,2.0,2.0,,ballarat-vic,-37.5711743,143.7989562
,,350.0,"1/1 Maude Street,",WENDOUREE VIC 3355,2.0,1.0,,,ballarat-vic,-37.5308997,143.8273108
,,490.0,"1 Curnow Street,",GOLDEN POINT VIC 3350,4.0,2.0,1.0,,ballarat-vic,-37.5750491,143.8613477
,,355.0,"214/133 Droop Street,",FOOTSCRAY VIC 3011,1.0,1.0,,,ballarat-vic,-37.7995,144.8963
,,445.0,"7/1 Fiona Court,",ST KILDA VIC 3182,1.0,1.0,1.0,,ballarat-vic,-37.8637194,144.9878945
,,800.0,"1/5 Jaguar Dr,",CLAYTON VIC 3168,4.0,3.0,2.0,,ballarat-vic,-37.9266051,145.1318539
,,650.0,"1 Tuckett Street,",ALPHINGTON VIC 3078,3.0,1.0,2.0,,ballarat-vic,-37.7810256,145.0229956
,,670.0,"205/8 Sutherland Street,",MELBOURNE VIC 3000,2.0,2.0,,,ballarat-vic,-37.8110719,144.960791
,,500.0,"134 Birdwood Avenue,",SEBASTOPOL VIC 3356,5.0,2.0,2.0,,ballarat-vic,-37.5976994,143.8316135
,,370.0,"255 Albert Street,",SEBASTOPOL VIC 3356,3.0,1.0,1.0,,ballarat-vic,-37.6212995,143.8343249
,,450.0,"39 Shillings Road,",MAMBOURIN VIC 3024,3.0,2.0,2.0,,ballarat-vic,-37.8887919,144.6021464
,,,"12 Hyacinth Grove,",WENDOUREE VIC 3355,3.0,1.0,1.0,,ballarat-vic,-37.5274593,143.8222854
,,500.0,"971a Albany Highway,",EAST VICTORIA PARK WA 6101,1.0,1.0,2.0,,ballarat-vic,-31.9813744,115.9010123
,,465.0,"83 Verdale Drive,",ALFREDTON VIC 3350,4.0,2.0,2.0,,ballarat-vic,-37.56499,143.7872425
,,350.0,"16 Malmesbury Street,",WENDOUREE VIC 3355,3.0,1.0,1.0,,ballarat-vic,-37.5256616,143.831953
,,600.0,"62 Magpie Street,",MOUNT PLEASANT VIC 3350,4.0,2.0,3.0,,ballarat-vic,-37.580942,143.860607
,,355.0,"303/133 Droop Street,",FOOTSCRAY VIC 3011,1.0,1.0,,,ballarat-vic,-37.7995,144.8963
,,350.0,"211/133 Droop Street,",FOOTSCRAY VIC 3011,1.0,1.0,,,ballarat-vic,-37.7995,144.8963
,,1395.0,"21A Peel St,",KEW VIC 3101,4.0,3.0,2.0,380m²,ballarat-vic,-37.8057382,145.0328061
,,650.0,"505 Cornish Street,",BUNINYONG VIC 3357,4.0,2.0,2.0,,ballarat-vic,-37.6548912,143.8878163
,,420.0,"24 Hensbergh Place,",SUNSHINE WEST VIC 3020,1.0,1.0,1.0,,ballarat-vic,-37.7953315,144.8005162
,,350.0,"107 Callow Street,",BALLARAT EAST VIC 3350,3.0,1.0,1.0,,ballarat-vic,-37.5677537,143.8736566
,,450.0,"20 Rivulet Road,",BONSHAW VIC 3352,4.0,2.0,2.0,,ballarat-vic,-37.59836,143.8219085
,,450.0,"4 Goldsborough Street,",BONSHAW VIC 3352,4.0,2.0,2.0,,ballarat-vic,-37.8167,143.7667
,,360.0,"59 Gillies Street South,",ALFREDTON VIC 3350,4.0,1.0,1.0,,ballarat-vic,-37.5684981,143.8163752
,,460.0,"8 Perth Avenue,",ALBION VIC 3020,3.0,1.0,,,ballarat-vic,-37.7799668,144.814721
,,390.0,"222 Victoria Street,",BALLARAT EAST VIC 3350,3.0,1.0,4.0,,ballarat-vic,-37.557985,143.8922346
,,355.0,"103/133 Droop Street,",FOOTSCRAY VIC 3011,1.0,1.0,,,ballarat-vic,-37.7947538,144.8955019
,,355.0,"309/133 Droop Street,",FOOTSCRAY VIC 3011,1.0,1.0,,,ballarat-vic,-37.7947538,144.8955019
,,355.0,"320/133 Droop Street,",FOOTSCRAY VIC 3011,1.0,1.0,,,ballarat-vic,-37.7947538,144.8955019
,,350.0,"304/133 Droop Street,",FOOTSCRAY VIC 3011,1.0,1.0,,,ballarat-vic,-37.7995,144.8963
,,360.0,"19/117-119 Ballarat Road,",FOOTSCRAY VIC 3011,1.0,1.0,,,ballarat-vic,-37.7995,144.8963
,,620.0,"11 Blunsdon Road,",WOLLERT VIC 3750,4.0,2.0,2.0,,ballarat-vic,-37.5960673,144.9926776
,,450.0,"32 Marxsen Parade,",LUCAS VIC 3350,4.0,2.0,2.0,,ballarat-vic,-37.5433964,143.7727183
,,400.0,"64 Vale Street,",SEBASTOPOL VIC 3356,3.0,1.0,3.0,585m²,ballarat-vic,-37.6047158,143.8404367
,,460.0,"21 Nivea Street,",MAMBOURIN VIC 3024,3.0,2.0,2.0,,ballarat-vic,-37.8895189,144.5990849
,,495.0,"49 Webster Street,",BALLARAT CENTRAL VIC 3350,2.0,1.0,1.0,,ballarat-vic,-37.5568865,143.851578
,,360.0,"11 Carpenter Street,",WENDOUREE VIC 3355,3.0,1.0,2.0,,ballarat-vic,-37.5231861,143.8334542
,,260.0,"2/6 Alfred Street,",SEBASTOPOL VIC 3356,2.0,1.0,1.0,,ballarat-vic,-37.5818672,143.8349475
,,360.0,"806 Doveton Street North,",SOLDIERS HILL VIC 3350,3.0,1.0,1.0,,ballarat-vic,-37.5551087,143.855996
,,360.0,"14/117-119 Ballarat Road,",FOOTSCRAY VIC 3011,1.0,1.0,,,ballarat-vic,-37.7995,144.8963
,,350.0,"2 Verbenna Grove,",WENDOUREE VIC 3355,3.0,1.0,,,ballarat-vic,-37.5314,143.8286
,,405.0,"1617 Sturt Street,",ALFREDTON VIC 3350,2.0,2.0,2.0,184m²,ballarat-vic,-37.5548284,143.8157401
,,360.0,"38/117-119 Ballarat Road,",FOOTSCRAY VIC 3011,1.0,1.0,,,ballarat-vic,-37.7995,144.8963
,,360.0,"36/117-119 Ballarat Road,",FOOTSCRAY VIC 3011,1.0,1.0,,,ballarat-vic,-37.7995,144.8963
,,380.0,"160 Albert Street,",SEBASTOPOL VIC 3356,4.0,1.0,,,ballarat-vic,-37.584494,143.8407772
,,600.0,"2 Ranni Place,",BONNIE BROOK VIC 3335,4.0,2.0,3.0,428m²,ballarat-vic,46.4194,14.6936
,,360.0,"18/117-119 Ballarat Road,",FOOTSCRAY VIC 3011,1.0,1.0,,,ballarat-vic,-37.7995,144.8963
,,700.0,"9 Glenview Rd,",DONCASTER EAST VIC 3109,3.0,2.0,2.0,,ballarat-vic,-37.7982746,145.1630683
,,530.0,"54 SOLITUDE CRESCENT,",POINT COOK VIC 3030,4.0,2.0,2.0,,ballarat-vic,-37.9045877,144.7181412
,,450.0,"3 Ireland Street,",SMYTHESDALE VIC 3351,3.0,1.0,2.0,,ballarat-vic,-37.6459029,143.6855367
,,310.0,"107 Little Dodds Street,",GOLDEN POINT VIC 3350,1.0,1.0,,,ballarat-vic,-37.570855,143.8718472
,,400.0,"9 Mia Street,",ALFREDTON VIC 3350,3.0,2.0,1.0,,ballarat-vic,-37.5647485,143.7850529
,,740.0,"1307/408 Spencer Street,",WEST MELBOURNE VIC 3003,2.0,1.0,,,ballarat-vic,-37.8101,144.95
,,780.0,"2011/371 Little Lonsdale Street,",MELBOURNE VIC 3000,2.0,2.0,,,ballarat-vic,-37.8138183,144.9531186
,,800.0,"902/408 Spencer Street,",WEST MELBOURNE VIC 3003,2.0,2.0,,,ballarat-vic,-37.8101,144.95
,,650.0,"1102/555 Swanston Street,",CARLTON VIC 3053,2.0,2.0,,,ballarat-vic,-37.8004,144.9684
,,470.0,"15 Dante Crescent,",BONSHAW VIC 3352,4.0,2.0,2.0,,ballarat-vic,-37.5949947,143.8166595
,,450.0,"101 Berrigan Drive,",BONSHAW VIC 3352,4.0,2.0,2.0,,ballarat-vic,-37.5966927,143.8231632
,,360.0,"3/9 Foster Street,",REDAN VIC 3350,2.0,1.0,1.0,,ballarat-vic,-37.5731279,143.8325306
,,750.0,"309/408 Spencer Street,",WEST MELBOURNE VIC 3003,2.0,2.0,1.0,,ballarat-vic,-37.8101,144.95
,,455.0,"173 Majestic Way,",WINTER VALLEY VIC 3358,3.0,2.0,2.0,,ballarat-vic,-37.576832,143.7954541
,,310.0,"2/14 Aquila Court,",BALLARAT NORTH VIC 3350,2.0,1.0,1.0,,ballarat-vic,-37.5439491,143.8700279
,,438.0,"21/26 Beverin Street,",SEBASTOPOL VIC 3356,1.0,1.0,,,ballarat-vic,-37.5855786,143.8395484
,,600.0,"14B Kinlock Avenue,",FERNDALE WA 6148,3.0,1.0,3.0,,ballarat-vic,-32.0314973,115.9311438
,,410.0,"1/912 Geelong Rd,",CANADIAN VIC 3350,3.0,2.0,1.0,,ballarat-vic,-37.5850948,143.8675749
,,440.0,"7 Aspen Street,",WINTER VALLEY VIC 3358,4.0,2.0,2.0,,ballarat-vic,-37.5865051,143.7956084
,,350.0,"56 Maple Avenue,",WENDOUREE VIC 3355,3.0,1.0,3.0,,ballarat-vic,-37.5284731,143.8223494
,,410.0,"62 Giot Drive,",WENDOUREE VIC 3355,3.0,2.0,1.0,,ballarat-vic,-37.5194434,143.8263219
,,440.0,"62 Alfredton Drive,",ALFREDTON VIC 3350,3.0,2.0,2.0,,ballarat-vic,-37.5564168,143.7956555
,,520.0,"22 Driftwood Street,",AINTREE VIC 3336,4.0,2.0,2.0,,ballarat-vic,-37.7152381,144.670721
,,1550.0,"201/1 Wallace Avenue,",TOORAK VIC 3142,2.0,2.0,2.0,,ballarat-vic,-37.8407409,145.0072068
,,400.0,"127 Walker Street,",BLACK HILL VIC 3350,3.0,1.0,4.0,,ballarat-vic,-37.5292,143.8591
,,550.0,"G11/110 Roberts Street,",WEST FOOTSCRAY VIC 3012,2.0,2.0,1.0,,ballarat-vic,-37.8302,144.8709
,,500.0,"79 Dorset Drive,",ALFREDTON VIC 3350,4.0,2.0,2.0,,ballarat-vic,-37.5603899,143.7974883
,,430.0,"5 Pelican Drive,",WINTER VALLEY VIC 3358,4.0,2.0,2.0,,ballarat-vic,-37.5730147,143.7829296
,,350.0,"5/91 Grant St,",SEBASTOPOL VIC 3356,2.0,1.0,1.0,,ballarat-vic,-37.6025704,143.8314026
,,400.0,"317 Armstrong Street North,",SOLDIERS HILL VIC 3350,3.0,1.0,1.0,,ballarat-vic,-37.556949,143.8571868
,,550.0,"10/949 Albany Highway,",EAST VICTORIA PARK WA 6101,2.0,1.0,1.0,,ballarat-vic,1.5,109.25
,,585.0,"10/135 Fitzroy Street,",ST KILDA VIC 3182,2.0,1.0,1.0,,ballarat-vic,-37.8613356,144.974858
,,500.0,"14 Landale Avenue,",MOUNT CLEAR VIC 3350,4.0,2.0,2.0,,ballarat-vic,-37.6080295,143.8634233
,,590.0,"8 Tynong Street,",CROYDON VIC 3136,3.0,1.0,1.0,877m²,bendigo-vic,-37.7875726,145.2787375
,,500.0,"4 Waugh Street,",ROCKBANK VIC 3335,4.0,2.0,2.0,,bendigo-vic,-37.7329611,144.6498316
,,995.0,"122A Sussex Street,",EAST VICTORIA PARK WA 6101,4.0,2.0,2.0,,bendigo-vic,-31.9838389,115.9009195
,,450.0,"5/3 Ryan Street,",NORTH BENDIGO VIC 3550,2.0,1.0,1.0,,bendigo-vic,-36.7454561,144.2830522
,,600.0,"6 Athena Way,",STRATHFIELDSAYE VIC 3551,5.0,2.0,2.0,,bendigo-vic,-36.7975232,144.3400794
,,600.0,"24 Jarrod Drive,",MCKENZIE HILL VIC 3451,4.0,2.0,2.0,,bendigo-vic,-37.0751856,144.1852909
,,480.0,"8 Chorley Street,",STRATHTULLOH VIC 3338,4.0,2.0,1.0,,bendigo-vic,-37.7236822,144.596732
,,510.0,"7 Waler Street,",AINTREE VIC 3336,3.0,2.0,2.0,,bendigo-vic,-37.72042,144.6689989
,,470.0,"4 The Terrace,",KENNINGTON VIC 3550,3.0,1.0,1.0,,bendigo-vic,-36.7774413,144.3028518
,,750.0,"178 Nicholson St,",BRUNSWICK EAST VIC 3057,2.0,1.0,1.0,247m²,bendigo-vic,-37.7654728,144.9805539
,,680.0,"10/8 Riversdale Road,",BURSWOOD WA 6100,1.0,1.0,1.0,,bendigo-vic,-31.9563359,115.9000791
,,450.0,"601/150 Dudley St,",WEST MELBOURNE VIC 3003,,1.0,1.0,,bendigo-vic,-37.8101,144.95
,,450.0,"58 Broadway,",ELWOOD VIC 3184,1.0,1.0,,,bendigo-vic,-37.8768281,144.9835959
,,650.0,"512/668 Swanston Street,",CARLTON VIC 3053,1.0,1.0,1.0,,bendigo-vic,-37.8004,144.9684
,,550.0,"4a Canrobert Street,",NEWSTEAD VIC 3462,3.0,2.0,2.0,,bendigo-vic,-37.1073483,144.0650109
,,450.0,"7B Wirth Street,",FLORA HILL VIC 3550,3.0,2.0,2.0,216m²,bendigo-vic,-36.7809694,144.2945597
,,650.0,"4 Crawley Court,",VIEWBANK VIC 3084,3.0,2.0,2.0,,bendigo-vic,-37.7362938,145.0917212
,,490.0,"37 Sunset Boulevard,",JACANA VIC 3047,3.0,1.0,,639m²,bendigo-vic,-37.6911121,144.9154098
,,750.0,"77 Hemingway Drive,",ROCKBANK VIC 3335,5.0,5.0,2.0,,bendigo-vic,-37.7357449,144.6650069
,,640.0,"2 Wigan Close,",WOLLERT VIC 3750,4.0,2.0,4.0,,bendigo-vic,-37.6169595,145.0240561
,,420.0,"477 High Street,",GOLDEN SQUARE VIC 3555,3.0,1.0,,"1,012m²",bendigo-vic,-36.7789914,144.2508853
,,480.0,"2/8 Martin St,",GOLDEN GULLY VIC 3555,4.0,2.0,2.0,,bendigo-vic,-36.7856956,144.2640055
,,520.0,"58 Whirrakee Parade,",HUNTLY VIC 3551,4.0,2.0,2.0,,bendigo-vic,-36.6628957,144.3505094
,,385.0,"2/46 Mackenzie St West,",GOLDEN SQUARE VIC 3555,2.0,1.0,1.0,,bendigo-vic,-36.7711621,144.2544163
,,590.0,"107/19 Irving Ave,",BOX HILL VIC 3128,2.0,1.0,1.0,,bendigo-vic,-37.8158711,145.1222744
,,,"1301/557 Little Lonsdale St,",MELBOURNE VIC 3000,1.0,1.0,,,bendigo-vic,-37.8109981,144.9628452
,,580.0,"5/59 Tooronga Rd,",MALVERN EAST VIC 3145,2.0,1.0,1.0,"1,091m²",bendigo-vic,-37.8734046,145.0383518
,,430.0,"5 Marshall Street,",KENNINGTON VIC 3550,3.0,1.0,1.0,,bendigo-vic,-36.7582,144.2802
,,520.0,"106/501-503 Plenty Road,",PRESTON VIC 3072,2.0,2.0,1.0,,bendigo-vic,-37.75,145.0167
,,580.0,"15/163 Hubert Street,",EAST VICTORIA PARK WA 6101,2.0,1.0,1.0,,bendigo-vic,-31.9907764,115.9106969
,,550.0,"4 Henderson Drive,",TARNEIT VIC 3029,4.0,2.0,2.0,,bendigo-vic,-37.8433637,144.6426152
,,580.0,".20 Kosa Avenue,",SUNSHINE WEST VIC 3020,3.0,2.0,2.0,,bendigo-vic,-37.7950931,144.7920516
,,350.0,"222 High Street,",HEATHCOTE VIC 3523,2.0,1.0,4.0,,bendigo-vic,-36.9172062,144.7035545
,,425.0,"14 Ebden Street,",HEATHCOTE VIC 3523,3.0,1.0,3.0,,bendigo-vic,-36.9184395,144.7009225
,,700.0,"8 Northmoor Drive,",STRATHDALE VIC 3550,4.0,2.0,2.0,,bendigo-vic,-36.7559059,144.3220229
,,800.0,"70 Cobram Drive,",EYNESBURY VIC 3338,5.0,3.0,2.0,,bendigo-vic,-37.7855923,144.5538346
,,430.0,"3 Walls Street,",EAGLEHAWK VIC 3556,3.0,1.0,2.0,,bendigo-vic,-36.7133675,144.2611513
,,465.0,"1/381 Middleborough Road,",BOX HILL VIC 3128,2.0,1.0,,,bendigo-vic,-37.8199145,145.1382926
,,460.0,"1610/6 Leicester Street,",CARLTON VIC 3053,1.0,1.0,,,bendigo-vic,-37.802198,144.9607524
,,525.0,"7 Dylana Court,",KANGAROO FLAT VIC 3555,3.0,2.0,2.0,,bendigo-vic,-36.8004506,144.231402
,,1075.0,"42 Fairview Rd,",MOUNT WAVERLEY VIC 3149,5.0,2.0,2.0,,bendigo-vic,-37.8667417,145.1164592
,,580.0,"20 Bent Street,",BUNDOORA VIC 3083,4.0,1.0,1.0,,bendigo-vic,-37.6979816,145.0597269
,,600.0,"723 Midland Highway,",HUNTLY VIC 3551,5.0,2.0,2.0,,bendigo-vic,-36.6715546,144.3254178
,,975.0,"506/1 Dank Street West,",PORT MELBOURNE VIC 3207,3.0,1.0,2.0,,bendigo-vic,-37.8329,144.922
,,650.0,"79 Ardmillan Rd,",MOONEE PONDS VIC 3039,3.0,1.0,2.0,,bendigo-vic,-37.7629189,144.9092671
,,,"1302/557 Little Lonsdale St,",MELBOURNE VIC 3000,1.0,1.0,,,bendigo-vic,-37.8109981,144.9628452
,,520.0,"6 McClellans Crescent,",ARGYLE VIC 3523,4.0,1.0,4.0,,bendigo-vic,-36.9494705,144.7272813
,,6.0,"5718 Calder Highway,",KANGAROO FLAT VIC 3555,4.0,2.0,3.0,1.42ha,bendigo-vic,-36.7906991,144.2444488
,,,"133 Nelson Rd,",BOX HILL NORTH VIC 3129,3.0,1.0,2.0,,bendigo-vic,-37.8125881,145.1202218
,,650.0,"11 Bangalay Place,",POINT COOK VIC 3030,4.0,2.0,2.0,572m²,bendigo-vic,-37.9030495,144.747281
,,530.0,"701/6 Leicester Street,",CARLTON VIC 3053,2.0,1.0,,,bendigo-vic,-37.802198,144.9607524
,,445.0,"19 Willan Street,",EAGLEHAWK VIC 3556,3.0,1.0,1.0,,bendigo-vic,-36.7198708,144.2587291
,,500.0,"9 Kerala Street,",ROCKBANK VIC 3335,4.0,2.0,1.0,,bendigo-vic,-37.7427695,144.6662207
,,480.0,"817 18-28 Albert Street,",FOOTSCRAY VIC 3011,2.0,1.0,1.0,,bendigo-vic,-37.7995,144.8963
,,3500.0,"28 Janelle Way,",OCEAN GROVE VIC 3226,3.0,2.0,4.0,600m²,bendigo-vic,-38.2485008,144.5553815
,,510.0,"46 Bluebottle Parade,",ROCKBANK VIC 3335,4.0,2.0,2.0,,bendigo-vic,-37.7444148,144.6467109
,,335.0,"235/386 Burwood Highway,",BURWOOD VIC 3125,1.0,1.0,,,bendigo-vic,-37.8498,145.119
,,500.0,"10 Heysen Way,",HUNTLY VIC 3551,3.0,2.0,2.0,,bendigo-vic,-36.6630086,144.3609732
,,570.0,"2508/31 A'Beckett St,",MELBOURNE VIC 3000,1.0,1.0,1.0,,bendigo-vic,-37.814,144.9633
,,550.0,"15 Westbury Ave,",ROCKBANK VIC 3335,5.0,2.0,2.0,512m²,bendigo-vic,-37.7420647,144.6662495
,,750.0,"9 Rathlin Avenue,",JUNORTOUN VIC 3551,3.0,2.0,2.0,,bendigo-vic,-36.7824233,144.3422951
,,500.0,"19-23 Marnie Road,",KENNINGTON VIC 3550,4.0,1.0,2.0,,bendigo-vic,-36.7814252,144.3087104
,,,"702/845-851 Whitehorse Rd,",BOX HILL VIC 3128,3.0,2.0,1.0,,bendigo-vic,-37.8256,145.1232
,,750.0,"35/1 Flagstaff Lane,",WEST MELBOURNE VIC 3003,2.0,2.0,1.0,,bendigo-vic,-37.8095186,144.9519321
,,560.0,"1006/545 Station St,",BOX HILL VIC 3128,1.0,1.0,1.0,,bendigo-vic,-37.8256,145.1232
,,480.0,"16 Zoe Street,",ROCKBANK VIC 3335,3.0,2.0,2.0,,bendigo-vic,-37.7349313,144.6608428
,,590.0,"409/2 Hallenstein Street,",FOOTSCRAY VIC 3011,2.0,2.0,1.0,,bendigo-vic,-37.7998253,144.9080515
,,510.0,"1 Blande Court,",LARA VIC 3212,3.0,2.0,2.0,,bendigo-vic,-38.0266872,144.4149844
,,,"44/145 Canterbury Road,",TOORAK VIC 3142,1.0,1.0,,,bendigo-vic,-37.8432666,145.0103739
,,800.0,"1806/408 Spencer Street,",WEST MELBOURNE VIC 3003,2.0,2.0,1.0,,bendigo-vic,-37.8101,144.95
,,450.0,"20 GRAPPENHALL AVENUE,",STRATHTULLOH VIC 3338,4.0,2.0,2.0,,bendigo-vic,-37.7296522,144.5947442
,,650.0,"606/12-14 Nelson Rd,",BOX HILL VIC 3128,2.0,2.0,1.0,,bendigo-vic,-37.8256,145.1232
,,335.0,"130/386 Burwood Highway,",BURWOOD VIC 3125,1.0,1.0,,,bendigo-vic,-37.8498,145.119
,,490.0,"320 Barnard Street,",IRONBARK VIC 3550,4.0,2.0,2.0,,bendigo-vic,-36.7607097,144.2636507
,,900.0,"1086 Settlement Rd,",CLARKEFIELD VIC 3430,4.0,2.0,2.0,"80,500m²",bendigo-vic,-37.4859753,144.7389736
,,540.0,"1 Russell Avenue,",WOODEND VIC 3442,3.0,1.0,3.0,,bendigo-vic,-37.3538786,144.5398306
,,595.0,"32 Victoria,",PRESTON VIC 3072,2.0,1.0,2.0,165m²,bendigo-vic,-37.75,145.0167
,,550.0,"1 Lexton Rd,",BOX HILL NORTH VIC 3129,3.0,1.0,2.0,,bendigo-vic,-37.8121569,145.1364385
,,395.0,"17/92 Grey St,",ST KILDA VIC 3182,,1.0,,30m²,bendigo-vic,-37.864,144.9814916
,,600.0,"25 Callanish Street,",TRUGANINA VIC 3029,4.0,2.0,2.0,,bendigo-vic,-37.814374,144.7136435
,,530.0,"8 Wattle St,",BOX HILL NORTH VIC 3129,3.0,1.0,2.0,,bendigo-vic,-37.8107889,145.119309
,,1950.0,"112 Harold St,",MIDDLE PARK VIC 3206,4.0,3.0,2.0,,bendigo-vic,-37.8517675,144.9582035
,,1150.0,"280A Tucker Rd,",ORMOND VIC 3204,4.0,3.0,2.0,,bendigo-vic,-37.9066213,145.053271
,,525.0,"206 Gatehouse Place,",MARIBYRNONG VIC 3032,2.0,1.0,1.0,,bendigo-vic,-37.773624,144.8809804
,,630.0,"2712/500 Elizabeth Street,",MELBOURNE VIC 3000,2.0,1.0,,,bendigo-vic,-37.7998626,144.9573647
,,620.0,"15 Leeward Drive,",TARNEIT VIC 3029,4.0,2.0,2.0,,bendigo-vic,-37.8612781,144.6469924
,,460.0,"1/9A Smith Street,",NORTH BENDIGO VIC 3550,1.0,1.0,1.0,,bendigo-vic,-36.7432355,144.2836663
,,580.0,"7 Lauradan Way,",WOLLERT VIC 3750,4.0,2.0,2.0,,bendigo-vic,-37.6023219,145.0074468
,,510.0,"41 Holman Crescent,",BACCHUS MARSH VIC 3340,4.0,2.0,2.0,,bendigo-vic,-37.7199,144.3727
,,400.0,"1 Dyason Ct,",LONG GULLY VIC 3550,3.0,1.0,,,bendigo-vic,-36.7516353,144.2571925
,,445.0,"43 Railway Street,",KANGAROO FLAT VIC 3555,2.0,1.0,1.0,,bendigo-vic,-36.8079669,144.2448189
,,475.0,"3A Fountain Street,",MALDON VIC 3463,2.0,1.0,,,bendigo-vic,-36.9971257,144.066371
,,525.0,"G11/110 Roberts Street,",WEST FOOTSCRAY VIC 3012,2.0,2.0,1.0,,bendigo-vic,-37.8302,144.8709
,,550.0,"11 Carina Court,",POINT COOK VIC 3030,4.0,2.0,,,bendigo-vic,-37.8923118,144.7242842
,,400.0,"2 Truscott Avenue,",CALIFORNIA GULLY VIC 3556,3.0,1.0,2.0,,bendigo-vic,-36.7226865,144.2691903
,,210.0,"1/133 Raleigh Road,",MARIBYRNONG VIC 3032,1.0,1.0,,,bendigo-vic,-37.7690186,144.8863597
,,445.0,"7/1 Fiona Court,",ST KILDA VIC 3182,1.0,1.0,1.0,,bendigo-vic,-37.8637194,144.9878945
,,500.0,"2 Ascot Ct,",NORTH BENDIGO VIC 3550,3.0,2.0,2.0,,bendigo-vic,-36.7404181,144.2802402
,,800.0,"1/5 Jaguar Dr,",CLAYTON VIC 3168,4.0,3.0,2.0,,bendigo-vic,-37.9266051,145.1318539
,,650.0,"1 Tuckett Street,",ALPHINGTON VIC 3078,3.0,1.0,2.0,,bendigo-vic,-37.7810256,145.0229956
,,670.0,"205/8 Sutherland Street,",MELBOURNE VIC 3000,2.0,2.0,,,bendigo-vic,-37.8110719,144.960791
,,450.0,"39 Shillings Road,",MAMBOURIN VIC 3024,3.0,2.0,2.0,,bendigo-vic,-37.8887919,144.6021464
,,500.0,"971a Albany Highway,",EAST VICTORIA PARK WA 6101,1.0,1.0,2.0,,bendigo-vic,-31.9813744,115.9010123
,,1395.0,"21A Peel St,",KEW VIC 3101,4.0,3.0,2.0,380m²,bendigo-vic,-37.8057382,145.0328061
,,420.0,"24 Hensbergh Place,",SUNSHINE WEST VIC 3020,1.0,1.0,1.0,,bendigo-vic,-37.7953315,144.8005162
,,620.0,"11 Blunsdon Road,",WOLLERT VIC 3750,4.0,2.0,2.0,,bendigo-vic,-37.5960673,144.9926776
,,460.0,"21 Nivea Street,",MAMBOURIN VIC 3024,3.0,2.0,2.0,,bendigo-vic,-37.8895189,144.5990849
,,600.0,"2 Ranni Place,",BONNIE BROOK VIC 3335,4.0,2.0,3.0,428m²,bendigo-vic,46.4194,14.6936
,,700.0,"9 Glenview Rd,",DONCASTER EAST VIC 3109,3.0,2.0,2.0,,bendigo-vic,-37.7982746,145.1630683
,,530.0,"54 SOLITUDE CRESCENT,",POINT COOK VIC 3030,4.0,2.0,2.0,,bendigo-vic,-37.9045877,144.7181412
,,740.0,"1307/408 Spencer Street,",WEST MELBOURNE VIC 3003,2.0,1.0,,,bendigo-vic,-37.8101,144.95
,,780.0,"2011/371 Little Lonsdale Street,",MELBOURNE VIC 3000,2.0,2.0,,,bendigo-vic,-37.8138183,144.9531186
,,800.0,"902/408 Spencer Street,",WEST MELBOURNE VIC 3003,2.0,2.0,,,bendigo-vic,-37.8101,144.95
,,650.0,"1102/555 Swanston Street,",CARLTON VIC 3053,2.0,2.0,,,bendigo-vic,-37.8004,144.9684
,,650.0,"1/4A Ruth Street,",GOLDEN SQUARE VIC 3555,3.0,1.0,2.0,,bendigo-vic,-36.7607363,144.2550972
,,420.0,"345B High Street,",KANGAROO FLAT VIC 3555,3.0,2.0,2.0,,bendigo-vic,-36.8185709,144.2378341
,,750.0,"309/408 Spencer Street,",WEST MELBOURNE VIC 3003,2.0,2.0,1.0,,bendigo-vic,-37.8101,144.95
,,600.0,"14B Kinlock Avenue,",FERNDALE WA 6148,3.0,1.0,3.0,,bendigo-vic,-32.0314973,115.9311438
,,520.0,"22 Driftwood Street,",AINTREE VIC 3336,4.0,2.0,2.0,,bendigo-vic,-37.7152381,144.670721
,,1550.0,"201/1 Wallace Avenue,",TOORAK VIC 3142,2.0,2.0,2.0,,bendigo-vic,-37.8407409,145.0072068
,,165.0,"Room 5/32 - 34 Churchill Avenue,",FLORA HILL VIC 3550,1.0,1.0,1.0,,bendigo-vic,-36.7582,144.2802
,,550.0,"G11/110 Roberts Street,",WEST FOOTSCRAY VIC 3012,2.0,2.0,1.0,,bendigo-vic,-37.8302,144.8709
,,550.0,"158 Mitchell Street,",QUARRY HILL VIC 3550,2.0,1.0,1.0,,bendigo-vic,-36.7672042,144.2852127
,,550.0,"10/949 Albany Highway,",EAST VICTORIA PARK WA 6101,2.0,1.0,1.0,,bendigo-vic,1.5,109.25
,,585.0,"10/135 Fitzroy Street,",ST KILDA VIC 3182,2.0,1.0,1.0,,bendigo-vic,-37.8613356,144.974858
,,460.0,"10 Hunter Street,",GOLDEN SQUARE VIC 3555,3.0,1.0,1.0,550m²,bendigo-vic,-36.7753973,144.257029
,,650.0,"1707/408 Spencer Street,",WEST MELBOURNE VIC 3003,2.0,1.0,,,bendigo-vic,-37.8101,144.95
,,640.0,"20 Teak Street,",CAULFIELD VIC 3162,3.0,1.0,,318m²,bendigo-vic,-37.8924424,145.0277385
,,900.0,"1903/408 Spencer Street,",WEST MELBOURNE VIC 3003,2.0,2.0,1.0,,bendigo-vic,-37.8101,144.95
,,995.0,"34 Bird Avenue,",NORTHCOTE VIC 3070,4.0,2.0,2.0,,bendigo-vic,-37.7619763,144.9920856
,,660.0,"1104/408 Spencer Street,",WEST MELBOURNE VIC 3003,2.0,1.0,,,bendigo-vic,-37.8101,144.95
,,780.0,"2609/545 Station Street,",BOX HILL VIC 3128,2.0,2.0,1.0,,bendigo-vic,-37.8256,145.1232
,,600.0,"12 Clay Crescent,",ROCKBANK VIC 3335,5.0,3.0,2.0,,bendigo-vic,-37.7440829,144.6593622
,,790.0,"1002/408 Spencer Street,",WEST MELBOURNE VIC 3003,2.0,2.0,,,bendigo-vic,-37.8101,144.95
,,600.0,"30 Mainview Boulevard,",TRUGANINA VIC 3029,4.0,2.0,2.0,,bendigo-vic,-37.8394196,144.7340978
,,570.0,"2/510 Station Street,",BOX HILL VIC 3128,3.0,1.0,2.0,,bendigo-vic,-37.8283527,145.1218953
,,290.0,"41 Gillard St,",BURWOOD VIC 3125,1.0,1.0,,,bendigo-vic,-37.8554052,145.1140174
,,1000.0,"6203/138 Spencer Street,",MELBOURNE VIC 3004,2.0,2.0,,,bendigo-vic,-37.814,144.9633
,,720.0,"2206/639 Lonsdale Street,",MELBOURNE VIC 3000,2.0,2.0,,,bendigo-vic,-37.814,144.9633
,,440.0,"230 Gordon St,",FOOTSCRAY VIC 3011,3.0,1.0,2.0,,bendigo-vic,-37.8009835,144.8877397
,,675.0,"23 Liege Avenue,",NOBLE PARK VIC 3174,3.0,2.0,1.0,,bendigo-vic,-37.9672835,145.1919102
,,430.0,"40 Lowndes Street,",KENNINGTON VIC 3550,3.0,1.0,1.0,,bendigo-vic,-36.7707714,144.3054335
,,650.0,"1510/828 Whitehorse Rd,",BOX HILL VIC 3128,2.0,2.0,1.0,,bendigo-vic,-37.8256,145.1232
,,550.0,"6 Garner Grove,",ROCKBANK VIC 3335,4.0,2.0,2.0,,bendigo-vic,-37.7344721,144.6512774
,,510.0,"19 HARWICH STREET,",ROCKBANK VIC 3335,4.0,2.0,2.0,,bendigo-vic,-37.7219059,144.640391
,,800.0,"10 Canara St,",DONCASTER EAST VIC 3109,4.0,2.0,4.0,,bendigo-vic,-37.7926995,145.155491
,,550.0,"11 Jobs Road,",ROCKBANK VIC 3335,4.0,2.0,2.0,,bendigo-vic,-37.7357735,144.6632722
,,700.0,"503/10 Wominjeka Walk,",WEST MELBOURNE VIC 3003,2.0,2.0,1.0,,bendigo-vic,-37.8097885,144.9486298
,,450.0,"10/23 Hallam Street,",QUARRY HILL VIC 3550,2.0,1.0,1.0,100m²,bendigo-vic,-36.7735704,144.285762
,,510.0,"9 Delhi Grove,",ROCKBANK VIC 3335,4.0,2.0,1.0,,bendigo-vic,-37.7436862,144.6640428
,,720.0,"4912/33 ROSE Lane,",MELBOURNE VIC 3000,2.0,2.0,,,bendigo-vic,-37.814,144.9633
,,615.0,"1 Coopworth Way,",ROCKBANK VIC 3335,4.0,3.0,2.0,,bendigo-vic,-37.7418798,144.6553772
,,680.0,"76 McKinley Drive,",TRUGANINA VIC 3029,4.0,4.0,2.0,,bendigo-vic,-37.7650548,144.6962139
,,520.0,"28 Tamworth Drive,",ROCKBANK VIC 3335,4.0,2.0,2.0,,bendigo-vic,-37.7335,144.67
,,480.0,"42 Sedate Drive,",ROCKBANK VIC 3335,3.0,2.0,2.0,,bendigo-vic,-37.7392179,144.6540942
,,500.0,"23 Delhi Grove,",ROCKBANK VIC 3335,4.0,2.0,2.0,,bendigo-vic,-37.7436862,144.6640428
,,500.0,"2007/288 Spencer Street,",MELBOURNE VIC 3000,1.0,1.0,,,bendigo-vic,-37.814,144.9633
,,640.0,"1/84 Broadway,",ELWOOD VIC 3184,2.0,1.0,,,bendigo-vic,-37.8768281,144.9835959
,,1100.0,"3/7A Osburn Ave,",BALWYN NORTH VIC 3104,4.0,3.0,1.0,,bendigo-vic,-37.793395,145.0743915
,,570.0,"56 Myers Street,",BENDIGO VIC 3550,3.0,2.0,,,bendigo-vic,-36.7589418,144.2872191
,,600.0,"17 Rodney St,",QUARRY HILL VIC 3550,3.0,1.0,1.0,,bendigo-vic,-36.7716701,144.2847694
,,580.0,"13/83-87 Arnold Street,",BENDIGO VIC 3550,2.0,2.0,2.0,,bendigo-vic,-36.7582,144.2802
,,600.0,"108/408 Spencer Street,",WEST MELBOURNE VIC 3003,1.0,1.0,,,bendigo-vic,-37.8101,144.95
,,950.0,"3 Marmara,",ELSTERNWICK VIC 3185,3.0,1.0,3.0,,bendigo-vic,-37.8910362,145.0039514
,,690.0,"81 Bent Street,",MOONEE PONDS VIC 3039,2.0,1.0,3.0,,bendigo-vic,-37.7626817,144.9355321
,,290.0,"95 Carinish Road,",CLAYTON VIC 3168,,1.0,,,bendigo-vic,-37.9242991,145.1205607
,,560.0,"107 Casey Street,",EAST BENDIGO VIC 3550,3.0,1.0,1.0,,bendigo-vic,-36.7573766,144.3007508
,,,"892 Hampton st,",BRIGHTON VIC 3186,3.0,1.0,3.0,659m²,bendigo-vic,-37.9065829,145.0085641
,,635.0,"80 Vine Street,",BENDIGO VIC 3550,3.0,2.0,1.0,,bendigo-vic,-36.7634277,144.2731225
,,320.0,"1/53 Bobs Street,",WHITE HILLS VIC 3550,2.0,1.0,1.0,,bendigo-vic,-36.7400324,144.2999385
,,400.0,"6/8 Clarke Street,",KENNINGTON VIC 3550,,,,,bendigo-vic,-36.7663258,144.2967835
,,750.0,"5C McIvor Court,",KENNINGTON VIC 3550,3.0,2.0,2.0,,bendigo-vic,-36.7600765,144.3048408
,,55.0,"200 Spencer Street,",MELBOURNE VIC 3004,,,1.0,,bendigo-vic,-37.8162806,144.9532882
,,580.0,"103/2 Queen Street,",BENDIGO VIC 3550,2.0,1.0,,,bendigo-vic,-36.7613392,144.2801674
,,550.0,"8/380 Inkerman Street,",ST KILDA VIC 3182,1.0,1.0,1.0,,bendigo-vic,-37.8645511,144.9852833
,,630.0,"10 Alfred Street,",BEAUMARIS VIC 3193,3.0,1.0,1.0,,bendigo-vic,-37.9766648,145.05149
,,620.0,"1/20 Oneill Street,",NORTH BENDIGO VIC 3550,3.0,2.0,1.0,,bendigo-vic,-36.7582,144.2802
,,640.0,"81 Averys Road,",JACKASS FLAT VIC 3556,3.0,1.0,1.0,,bendigo-vic,-36.7180284,144.2742617
,,680.0,"2 Pitt Street,",BENDIGO VIC 3550,3.0,2.0,2.0,,bendigo-vic,-36.7602249,144.2661105
,,,"290 Maribyrnong Road,",MOONEE PONDS VIC 3039,4.0,1.0,,,bendigo-vic,-37.7726018,144.9246348
,,580.0,"1/50 Elder Street,",WATSONIA VIC 3087,3.0,2.0,1.0,,bendigo-vic,-37.7142764,145.0920443
,,780.0,"2/23 View Point,",BENDIGO VIC 3550,2.0,2.0,1.0,,bendigo-vic,-36.7593085,144.2779029
,,680.0,"41 Drought Street,",BENDIGO VIC 3550,3.0,2.0,4.0,,bendigo-vic,-36.7507901,144.2771174
,,820.0,"228 View Street,",BENDIGO VIC 3550,3.0,3.0,2.0,,bendigo-vic,-36.755423,144.2741649
,,560.0,"1/65 McIvor Rd,",BENDIGO VIC 3550,2.0,1.0,1.0,,bendigo-vic,-36.7581711,144.297069
,,430.0,"568 Hargreaves Street,",BENDIGO VIC 3550,1.0,1.0,1.0,309m²,bendigo-vic,-36.7625567,144.2767875
,,580.0,"105 Lucan Street,",BENDIGO VIC 3550,2.0,1.0,2.0,,bendigo-vic,-36.7474699,144.2864566
,,660.0,"13 Ucres Way,",GOLDEN SQUARE VIC 3555,3.0,2.0,2.0,,bendigo-vic,-36.7819509,144.2379206
,,470.0,"1/164 Neale Street,",FLORA HILL VIC 3550,2.0,1.0,1.0,,bendigo-vic,-36.7796713,144.2909421
,,670.0,"2/19 Creek Street,",BENDIGO VIC 3550,2.0,1.0,1.0,,bendigo-vic,-36.7628175,144.2751211
,,580.0,"13 Rosalind Street,",BENDIGO VIC 3550,3.0,1.0,1.0,,bendigo-vic,-36.7531215,144.2767103
,,650.0,"706/218 A'Beckett Street,",MELBOURNE VIC 3000,2.0,1.0,1.0,,bendigo-vic,-37.814,144.9633
,,240.0,"Berth 30/84A River Esplanade,",DOCKLANDS VIC 3008,1.0,1.0,1.0,50m²,bendigo-vic,-37.8149,144.9505
,,,"6/8 Parring Rd,",BALWYN VIC 3103,2.0,1.0,2.0,,bendigo-vic,-37.8139475,145.090677
,,800.0,"16 Michelsen Street,",NORTH BENDIGO VIC 3550,4.0,2.0,2.0,,bendigo-vic,-36.7464472,144.277888
,,560.0,"11 Pyke Street,",QUARRY HILL VIC 3550,2.0,1.0,1.0,,bendigo-vic,-36.7696066,144.2807828
,,600.0,"1 Reef Street,",BENDIGO VIC 3550,3.0,1.0,1.0,,bendigo-vic,-36.7595938,144.2678814
,,580.0,"51 Gladstone Street,",QUARRY HILL VIC 3550,2.0,1.0,1.0,,bendigo-vic,-36.7664992,144.2835679
,,630.0,"1A Carola Court,",KENNINGTON VIC 3550,3.0,2.0,1.0,,bendigo-vic,-36.7596647,144.3021518
,,65.0,"539 St Kilda Road,",MELBOURNE VIC 3004,,1.0,1.0,,bendigo-vic,-37.845647,144.9803033
,,620.0,"4/17 Bobs Street,",BENDIGO VIC 3550,2.0,1.0,1.0,,bendigo-vic,-36.7400324,144.2999385
,,750.0,"7 Langley Drive,",EPSOM VIC 3551,4.0,2.0,2.0,,bendigo-vic,-36.7103675,144.3173093
,,810.0,"2/60A Honeysuckle Street,",IRONBARK VIC 3550,3.0,2.0,2.0,,bendigo-vic,-36.7590846,144.2641556
,,580.0,"33A Pallett Street,",GOLDEN SQUARE VIC 3555,3.0,2.0,1.0,,bendigo-vic,-36.7645374,144.2515452
,,550.0,"2 Miami Crt,",BENDIGO VIC 3550,3.0,1.0,1.0,,bendigo-vic,-36.7416056,144.289129
,,240.0,"Car Space/6 Leicester Street,",CARLTON VIC 3053,1.0,1.0,1.0,,bendigo-vic,-37.8004,144.9684
,,420.0,"242A Don Street,",BENDIGO VIC 3550,1.0,1.0,,,bendigo-vic,-36.7597899,144.268821
,,480.0,"1 Bed 1 Bath/34 Cowper Street,",FOOTSCRAY VIC 3011,1.0,1.0,,,bendigo-vic,-37.7995,144.8963
,,600.0,"2 Bed 2 Bath/34 Cowper Street,",FOOTSCRAY VIC 3011,2.0,2.0,,,bendigo-vic,-37.7995,144.8963
,,650.0,"59 Hopetoun Street,",BENDIGO VIC 3550,3.0,1.0,1.0,,bendigo-vic,-36.7557264,144.2879834
,,630.0,"11A Afton Street,",NORTH BENDIGO VIC 3550,3.0,2.0,1.0,,bendigo-vic,-36.7427659,144.2878435
,,680.0,"109 Hargreaves Street,",BENDIGO VIC 3550,3.0,2.0,1.0,,bendigo-vic,-36.7625567,144.2767875
,,520.0,"5/7-9 View Point,",BENDIGO VIC 3550,2.0,1.0,,,bendigo-vic,-36.7593085,144.2779029
,,450.0,"4/7-9 View Point,",BENDIGO VIC 3550,1.0,1.0,,,bendigo-vic,-36.7582,144.2802
,,700.0,"3/78 Somerville Street,",FLORA HILL VIC 3550,4.0,2.0,2.0,,bendigo-vic,-36.7765203,144.2893093
,,700.0,"3/35 Sternberg Street,",KENNINGTON VIC 3550,3.0,2.0,2.0,,bendigo-vic,-36.7576879,144.2922427
,,560.0,"34 Olinda Street,",QUARRY HILL VIC 3550,2.0,1.0,1.0,,bendigo-vic,-36.7722757,144.276685
,,790.0,"106 Mollison Street,",BENDIGO VIC 3550,4.0,3.0,2.0,,bendigo-vic,-36.7618056,144.2846057
,,650.0,"18 Anderson Street,",NORTH BENDIGO VIC 3550,3.0,2.0,1.0,,bendigo-vic,-36.7487278,144.2748888
,,610.0,"1/19 Creek Street,",BENDIGO VIC 3550,2.0,2.0,1.0,,bendigo-vic,-36.7628175,144.2751211
,,650.0,"101 Queen Street,",BENDIGO VIC 3550,2.0,2.0,2.0,291m²,bendigo-vic,-36.7613392,144.2801674
,,600.0,"2/164 Arnold Street,",NORTH BENDIGO VIC 3550,2.0,2.0,1.0,,bendigo-vic,-36.7437555,144.2744502
,,580.0,"1/164 Arnold Street,",BENDIGO VIC 3550,2.0,1.0,1.0,,bendigo-vic,-36.7522718,144.2865143
,,570.0,"36 Honeysuckle Street,",BENDIGO VIC 3550,3.0,1.0,2.0,,bendigo-vic,-36.7633861,144.2670834
,,400.0,"4/9A Smith. Street,",NORTH BENDIGO VIC 3550,1.0,1.0,1.0,,bendigo-vic,-36.7432355,144.2836663
,,540.0,"9B Holt Street,",BENDIGO VIC 3550,2.0,2.0,1.0,,bendigo-vic,-36.7545551,144.2866652
,,590.0,"1/46 Lansell Street,",EAST BENDIGO VIC 3550,2.0,1.0,1.0,,bendigo-vic,-36.7557808,144.2992184
,,550.0,"59 Mundy Street,",BENDIGO VIC 3550,2.0,1.0,,,bendigo-vic,-36.7601662,144.286448
,,560.0,"21A Smith Street,",NORTH BENDIGO VIC 3550,2.0,2.0,1.0,,bendigo-vic,-36.7432355,144.2836663
,,850.0,"230 View Street,",BENDIGO VIC 3550,3.0,3.0,2.0,,bendigo-vic,-36.755423,144.2741649
,,650.0,"2 Ingleton Street,",NORTH BENDIGO VIC 3550,3.0,3.0,2.0,,bendigo-vic,-36.7423674,144.2726743
,,560.0,"33 Currong Street South,",REID ACT 2612,2.0,1.0,1.0,"2,497m²",bendigo-vic,-35.2839691,149.1432609
,,670.0,"2 Holt Street,",BENDIGO VIC 3550,3.0,2.0,1.0,,bendigo-vic,-36.7545551,144.2866652
,,480.0,"1/113 Bridge Street,",BENDIGO VIC 3550,2.0,1.0,1.0,,bendigo-vic,-36.7460797,144.2887576
,,660.0,"2/31 Booth Street,",GOLDEN SQUARE VIC 3555,3.0,2.0,2.0,,bendigo-vic,-36.7702887,144.2622752
,,570.0,"22 Murphy Street,",BENDIGO VIC 3550,3.0,2.0,4.0,,bendigo-vic,-36.7285207,144.3135479
,,780.0,"84 Sternberg Street,",BENDIGO VIC 3550,4.0,2.0,3.0,,bendigo-vic,-36.7576879,144.2922427
,,550.0,"15 Uley Street,",BENDIGO VIC 3550,2.0,1.0,1.0,,bendigo-vic,-36.7514187,144.2828875
,,500.0,"3/37 Day Street,",EAST BENDIGO VIC 3550,2.0,1.0,1.0,,bendigo-vic,-36.7506282,144.300363
,,650.0,"3 Hoskins Street,",QUARRY HILL VIC 3550,2.0,2.0,1.0,,bendigo-vic,-36.7674278,144.2826798
,,800.0,"6 Hawkins Road,",MONTROSE VIC 3765,5.0,2.0,,,bendigo-vic,-37.8009117,145.3660596
