Agent Name,Agent Company,Price,Address Line 1,Address Line 2,Bedrooms,Bathrooms,Parking,Floor Space,Region,latitude,longitude
Kim Te,Motion Property,$480 per week,"104A/2A Duffy Street,",ESSENDON NORTH VIC 3041,1 Bed,1 Bath,1 Parking,,latrobe-valley-vicwangaratta-vic,-37.7133,144.8969
Queanbeyan Property Management,Blackshaw Queanbeyan & Jerrabomberra,$590 per week,"226/7 Irving Street,",PHILLIP ACT 2606,1 Bed,1 Bath,1 Parking,,latrobe-valley-vicwangaratta-vic,-35.3396914,149.0842859
Tim Miosge,Cream Residential,$400 per week,"11b/30 Launceston Street,",LYONS ACT 2606,1 Bed,1 Bath,1 Parking,,latrobe-valley-vicwangaratta-vic,-35.3398343,149.0820314
,,"$1,050 per week","30 Downes Place,",HUGHES ACT 2605,4 Beds,3 Baths,2 Parking,,latrobe-valley-vicwangaratta-vic,-35.3305307,149.1020684
Tim Miosge,Cream Residential,$680 per week,"74 Launceston Street,",LYONS ACT 2606,3 Beds,1 Bath,1 Parking,,latrobe-valley-vicwangaratta-vic,-35.3398343,149.0820314
Andrew D'Aprano,NICOLE GERVASI PROPERTY GROUP,$500 per week,"313/8 Webb Road,",AIRPORT WEST VIC 3042,2 Beds,1 Bath,1 Parking,,latrobe-valley-vicwangaratta-vic,-37.7159629,144.8896322
Paul Kerin,EnVogue Property Management,$625.00 per week,"5/88 Julia Flynn Avenue,",ISAACS ACT 2607,3 Beds,2 Baths,2 Parking,,latrobe-valley-vicwangaratta-vic,-35.3643084,149.1106254
Paul Kerin,EnVogue Property Management,$600.00 per week,"56/26 Marie Little Crescent,",DENMAN PROSPECT ACT 2611,2 Beds,2 Baths,2 Parking,,latrobe-valley-vicwangaratta-vic,-35.302295,149.0322341
Bernadette Clayton,Belle Property Hunter Region,$480 per week,"15 Armidale Street,",ABERMAIN NSW 2326,2 Beds,1 Bath,− Parking,,latrobe-valley-vicwangaratta-vic,-32.8058546,151.4252653
Kimberly Castle,AM Property Agency,$400 pw,"609/220 Melrose Drive,",PHILLIP ACT 2606,1 Bed,1 Bath,− Parking,,latrobe-valley-vicwangaratta-vic,-35.3368413,149.0858351
Property Management,Blackshaw Woden,$740 Per Week,"9/11 Castan Street,",COOMBS ACT 2611,4 Beds,2 Baths,2 Parking,,latrobe-valley-vicwangaratta-vic,-35.317628,149.0425744
Daniel Hatchuel,Performance Asset Management Melbourne,$900 per week,"58 Argyle Street,",MOONEE PONDS VIC 3039,3 Beds,2 Baths,2 Parking,,latrobe-valley-vicwangaratta-vic,-37.7679089,144.9071296
HomeGround Enquiries,HomeGround Real Estate Canberra,$800 per week,"15 Shepherd Street,",PEARCE ACT 2607,4 Beds,2 Baths,1 Parking,,latrobe-valley-vicwangaratta-vic,-35.3621994,149.0825945
Leasing Team,LJ Hooker Belconnen,$460 per week,"2013/120 Eastern Valley Way,",BELCONNEN ACT 2617,1 Bed,1 Bath,1 Parking,,latrobe-valley-vicwangaratta-vic,-35.2199,149.0869
Tim Miosge,Cream Residential,$550per week,"192/7 Irving Street,",PHILLIP ACT 2606,2 Beds,1 Bath,1 Parking,,latrobe-valley-vicwangaratta-vic,-35.3396914,149.0842859
Angela Weatherill,CTC Property Group,$600 per week,"13/86 Mawson Drive,",MAWSON ACT 2607,2 Beds,1 Bath,1 Parking,,latrobe-valley-vicwangaratta-vic,-35.364237,149.0929098
Michael Guneratne,Hayman Partners,$590 per week,"296/7 Irving Street,",PHILLIP ACT 2606,2 Beds,1 Bath,2 Parking,,latrobe-valley-vicwangaratta-vic,-35.3396914,149.0842859
Brittinee Smith,Ray White Canberra,$600,"6/9 Maria Place,",LYONS ACT 2606,2 Beds,2 Baths,2 Parking,,latrobe-valley-vicwangaratta-vic,-35.3465785,149.0794527
Stacie Maher,Ray White Brookwater and Greater Springfield,$600 Per Week,"28 Beaming Road,",RIPLEY QLD 4306,4 Beds,2 Baths,2 Parking,,latrobe-valley-vicwangaratta-vic,47.55831,8.40474
Client Concierge,The Property Collective,$530 per week,"2,2,1/220 Melrose Drive,",PHILLIP ACT 2606,2 Beds,2 Baths,1 Parking,,latrobe-valley-vicwangaratta-vic,-35.3406,149.074
Leasing Department,Vanilla Rentals,$680 weekly,"4 Aspen Court,",REGENCY DOWNS QLD 4341,4 Beds,2 Baths,2 Parking,,latrobe-valley-vicwangaratta-vic,-27.5185352,152.4475326
Rose,Distinct,$700 per week,"41/2 Foulkes Street,",DENMAN PROSPECT ACT 2611,3 Beds,2 Baths,2 Parking,,latrobe-valley-vicwangaratta-vic,-35.3008983,149.0302502
Danielle Coady,Element Property Services,$630 per week,"Unit 207/43 Arthur Blakeley Way,",COOMBS ACT 2611,3 Beds,2 Baths,2 Parking,,latrobe-valley-vicwangaratta-vic,-35.3503,149.0155
Lee Forbes,McGrath Hunter Valley,$480 pw,"2A Sawyer Street,",PAXTON NSW 2325,3 Beds,1 Bath,1 Parking,,latrobe-valley-vicwangaratta-vic,-32.9036435,151.2871318
Ned Hibbert,Maloney's the Estate Agent,$470 weekly,"5/78 Hodgson Crescent,",PEARCE ACT 2607,2 Beds,1 Bath,1 Parking,,latrobe-valley-vicwangaratta-vic,-35.3572232,149.0881052
Leasing Agent,Bolton & Co O'Connor,$475 per week,"5/10 Tank St,",PHILLIP ACT 2606,1 Bed,1 Bath,1 Parking,"1,367m²",latrobe-valley-vicwangaratta-vic,-35.3468583,149.0948472
Alicia Hopgood,,$650.00,"126 Mt Alexander Road,",TRAVANCORE VIC 3032,2 Beds,1 Bath,− Parking,,latrobe-valley-vicwangaratta-vic,-37.7827657,144.9346085
Kelly Smyth,,$700,"6 Pankhurst Avenue,",NORTH ROTHBURY NSW 2335,4 Beds,2 Baths,2 Parking,,latrobe-valley-vicwangaratta-vic,46.58311,6.88295
Catherine Walter,,$540 weekly,"2/22 Marguerite St,",RANELAGH TAS 7109,2 Beds,2 Baths,1 Parking,,latrobe-valley-vicwangaratta-vic,-43.0069653,147.041656
Catherine Walter,,$250 weekly,"2/60 Pottery Rd,",DOVER TAS 7117,1 Bed,1 Bath,1 Parking,,latrobe-valley-vicwangaratta-vic,-43.32535,147.0009739
Kelly Smyth,,$850,"11 Wesley Street,",BOLWARRA HEIGHTS NSW 2320,4 Beds,2 Baths,2 Parking,,latrobe-valley-vicwangaratta-vic,-32.6994627,151.5863782
Shikayla Pike,,$420.00 per week,"2/1 Gant Street,",LENAH VALLEY TAS 7008,1 Bed,1 Bath,1 Parking,53m²,latrobe-valley-vicwangaratta-vic,-42.8634275,147.2976577
Bradley Shadlow,,$600 per week | Two Living Areas & Three W/C's,"26 Evatt Street,",PELAW MAIN NSW 2327,4 Beds,2 Baths,2 Parking,556m²,latrobe-valley-vicwangaratta-vic,-32.83779,151.48151
Cooper Cavallo,,$610 per week,"405/9 Shuter Street,",MOONEE PONDS VIC 3039,2 Beds,2 Baths,1 Parking,,latrobe-valley-vicwangaratta-vic,-37.7675792,144.9207019
Ryan Mitchell,,$520 per week | Brand new carpet,"32/270 Wollombi Road,",BELLBIRD NSW 2325,3 Beds,2 Baths,2 Parking,,latrobe-valley-vicwangaratta-vic,-32.8521292,151.327002
Ryan Mitchell,,$440 per week | Two Living Areas,"2 Jersey Place,",MUSWELLBROOK NSW 2333,3 Beds,1 Bath,2 Parking,712m²,latrobe-valley-vicwangaratta-vic,-32.2765009,150.8810529
Tomeeka Zielinski,,$670 per week | Grand Home with High Ceilings,"7 Blacksmith Street,",CLIFTLEIGH NSW 2321,4 Beds,2 Baths,2 Parking,451m²,latrobe-valley-vicwangaratta-vic,-32.7893663,151.5128925
Ryan Mitchell,,$550 per week | Partly Furnished,"1/71 Osborn Avenue,",MUSWELLBROOK NSW 2333,3 Beds,2 Baths,1 Parking,,latrobe-valley-vicwangaratta-vic,-32.2783348,150.8879675
Meleah Morris,,$430 weekly,"1/20 Justine Parade,",RUTHERFORD NSW 2320,2 Beds,1 Bath,1 Parking,,latrobe-valley-vicwangaratta-vic,-32.7090222,151.519136
Sylvia Mesoina,,"$1,200 per week","3A Bain Place,",DUNDAS VALLEY NSW 2117,4 Beds,3 Baths,2 Parking,,latrobe-valley-vicwangaratta-vic,-33.793335,151.057577
Laura Kelly,,$1050 Per Week,"68 Ivy Street,",DARLINGTON NSW 2330,3 Beds,1 Bath,− Parking,,latrobe-valley-vicwangaratta-vic,-33.8900487,151.1956231
Cooper Cavallo,,$475 per week,"7/21 Moore Street,",MOONEE PONDS VIC 3039,1 Bed,1 Bath,1 Parking,,latrobe-valley-vicwangaratta-vic,-37.7685092,144.9200385
Yejin (Jenny) Seol,,$670,"61 Supply Street,",DUNDAS VALLEY NSW 2117,3 Beds,1 Bath,2 Parking,,latrobe-valley-vicwangaratta-vic,-33.788048,151.05522
Jasmine Wheeler,,$400,"1/192A Chandlers Hill Road,",HAPPY VALLEY SA 5159,1 Bed,1 Bath,2 Parking,,latrobe-valley-vicwangaratta-vic,-35.0804478,138.5675526
Natalie Fehlberg,,$460.00 per week,"77 Charlotte Street,",NEW NORFOLK TAS 7140,3 Beds,1 Bath,2 Parking,,latrobe-valley-vicwangaratta-vic,-42.7891229,147.0548326
Bradley Shadlow,,$600 per week,"35 Devon Street,",GRETA NSW 2334,4 Beds,2 Baths,2 Parking,,latrobe-valley-vicwangaratta-vic,-32.6717918,151.3862909
Erin Slade,,$440 per week | Ideal for Shift Workers,"106 Maitland Street,",MUSWELLBROOK NSW 2333,3 Beds,1 Bath,− Parking,,latrobe-valley-vicwangaratta-vic,-32.269738,150.8882181
Natalie Scinto,,$480 per week,"44 Flockhart Avenue,",VALLEY VIEW SA 5093,3 Beds,1 Bath,4 Parking,,latrobe-valley-vicwangaratta-vic,-34.8415355,138.6704047
Lucy Grice,,$540 p.w,"77 Native Corners Road,",CAMPANIA TAS 7026,3 Beds,2 Baths,− Parking,,latrobe-valley-vicwangaratta-vic,-42.6520866,147.4056027
Renee Moore,,$620.00 Per Week,"16 Royston Circuit,",FARLEY NSW 2320,4 Beds,2 Baths,1 Parking,,latrobe-valley-vicwangaratta-vic,-32.7295806,151.5109152
Bradley Shadlow,,$460 per week | Water Included,"7B Jersey Street,",GILLIESTON HEIGHTS NSW 2321,2 Beds,1 Bath,1 Parking,,latrobe-valley-vicwangaratta-vic,-32.768159,151.523305
Belinda Bean,,"$1,050 per week","12 O'Connell Place,",RED HILL QLD 4059,3 Beds,2 Baths,2 Parking,,latrobe-valley-vicwangaratta-vic,-27.4561038,153.0048394
Bradley Shadlow,,$670 per week | McDonald Jones Home,"9 Lapwing Street,",ABERGLASSLYN NSW 2320,4 Beds,2 Baths,2 Parking,495m²,latrobe-valley-vicwangaratta-vic,-32.6934593,151.546537
Zac Keltie,,$850 per week,"14 Dickens Street,",MOONEE PONDS VIC 3039,3 Beds,1 Bath,1 Parking,,latrobe-valley-vicwangaratta-vic,-37.7717185,144.9272268
Jeremy Paikaew,,$675 per week,"1713/179 Alfred Street,",FORTITUDE VALLEY QLD 4006,1 Bed,1 Bath,1 Parking,,latrobe-valley-vicwangaratta-vic,47.35156,8.10669
Kelly Smyth,,$750,"86 Rigby Drive,",NORTH ROTHBURY NSW 2335,4 Beds,2 Baths,2 Parking,,latrobe-valley-vicwangaratta-vic,46.58311,6.88295
Carol Hartlett,,$580 per week,"19 Stone Road,",HAPPY VALLEY SA 5159,3 Beds,1 Bath,4 Parking,,latrobe-valley-vicwangaratta-vic,-35.0814718,138.5622385
Erin Slade,,$550 per week | Great family home,"2/86 Tindale Street,",MUSWELLBROOK NSW 2333,4 Beds,2 Baths,2 Parking,,latrobe-valley-vicwangaratta-vic,-32.2737441,150.8826497
Tabi Yazdi,,$1160 PW I Level 15,"11505/5 Sam Sing Street,",WATERLOO NSW 2017,2 Beds,2 Baths,1 Parking,,latrobe-valley-vicwangaratta-vic,70.4991,23.97393
Winnie Wong,,Leased,"47 Alexander Street,",DUNDAS VALLEY NSW 2117,3 Beds,2 Baths,2 Parking,,latrobe-valley-vicwangaratta-vic,-33.787647,151.053962
Casey Blaine,,FULLY FURNISHED - $420 PER WEEK,"5/8 Dale St,",KENNINGTON VIC 3550,1 Bed,1 Bath,1 Parking,,latrobe-valley-vicwangaratta-vic,-36.7612758,144.3023453
Jasmine Wheeler,,$675,"4 Fairbrother Drive,",HAPPY VALLEY SA 5159,3 Beds,1 Bath,3 Parking,873m²,latrobe-valley-vicwangaratta-vic,-35.0870965,138.5913009
Cassandra Ambrose,,$525,"7 Heath Street,",BEGA NSW 2550,3 Beds,1 Bath,1 Parking,,latrobe-valley-vicwangaratta-vic,-36.6756663,149.8366853
Tyler Fardell,,$585 per week,"26 Auburn Street,",GILLIESTON HEIGHTS NSW 2321,4 Beds,2 Baths,1 Parking,,latrobe-valley-vicwangaratta-vic,-32.7674732,151.5243401
Tracey Coe,,$550,"1671a Nowra Road,",FITZROY FALLS NSW 2577,3 Beds,1 Bath,− Parking,,latrobe-valley-vicwangaratta-vic,-34.65,150.48333
Breanna Wilson,,$530 per week,"2/9 Windermere Road,",LOCHINVAR NSW 2321,3 Beds,2 Baths,1 Parking,,latrobe-valley-vicwangaratta-vic,-32.6994169,151.445072
,,$560 Per Week,"6 Latrobe Avenue,",PAKENHAM VIC 3810,3 Beds,2 Baths,2 Parking,,latrobe-valley-vicwangaratta-vic,-38.0715931,145.451367
,,$500 Per Week,"7/164 Napier Street,",ESSENDON VIC 3040,2 Beds,1 Bath,1 Parking,,latrobe-valley-vicwangaratta-vic,-37.7440895,144.9197012
,,$895,"28 Glenview Road,",STRATHMORE VIC 3041,3 Beds,2 Baths,2 Parking,,latrobe-valley-vicwangaratta-vic,-37.7373213,144.9207357
,,$530pw - Under Offer,"902/19 Russell Street,",ESSENDON VIC 3040,2 Beds,2 Baths,1 Parking,,latrobe-valley-vicwangaratta-vic,-37.7555686,144.9167994
,,$650 per week,"7/11 Hodnet Bend,",THE VINES WA 6069,3 Beds,2 Baths,2 Parking,270m²,latrobe-valley-vicwangaratta-vic,-31.7623708,115.9872899
,,$580,"21 Manchado Street,",TARNEIT VIC 3029,4 Beds,2 Baths,2 Parking,,latrobe-valley-vicwangaratta-vic,-37.8826,144.7003
,,$410,"5/48 Scotia Street,",MOONEE PONDS VIC 3039,1 Bed,1 Bath,1 Parking,,latrobe-valley-vicwangaratta-vic,-37.7703515,144.9052814
,,$700 per week,"401/9 Shuter Street,",MOONEE PONDS VIC 3039,2 Beds,2 Baths,1 Parking,7m²,latrobe-valley-vicwangaratta-vic,-37.7675792,144.9207019
,,$430 Per Week,"134 Warana Drive,",HAMPTON PARK VIC 3976,3 Beds,1 Bath,1 Parking,544m²,latrobe-valley-vicwangaratta-vic,-38.0330421,145.2799145
,,$740,"41 Clydebank Road,",ESSENDON WEST VIC 3040,3 Beds,1 Bath,3 Parking,,latrobe-valley-vicwangaratta-vic,-37.7559997,144.8881244
,,$850 pw / $3693 pcm,"1/7A Wiseman Court,",ESSENDON VIC 3040,4 Beds,2 Baths,2 Parking,,latrobe-valley-vicwangaratta-vic,-37.7521745,144.9267519
,,$630.00 per week,"1/56 Glenard Drive,",EAGLEMONT VIC 3084,2 Beds,1 Bath,1 Parking,,latrobe-valley-vicwangaratta-vic,-37.7612356,145.0721257
,,$795 weekly,"69 Ferry Pde,",NORTH ROTHBURY NSW 2335,5 Beds,2 Baths,2 Parking,,latrobe-valley-vicwangaratta-vic,46.58311,6.88295
,,$460,"3 Bent Street,",TAREE NSW 2430,3 Beds,1 Bath,1 Parking,,latrobe-valley-vicwangaratta-vic,-31.9044504,152.4716147
,,$490,"204/35 Hall Street,",MOONEE PONDS VIC 3039,1 Bed,1 Bath,1 Parking,,latrobe-valley-vicwangaratta-vic,-37.7661867,144.9232616
,,$575pw / $2499pcm,"18/43 Raleigh Street,",ESSENDON VIC 3040,2 Beds,1 Bath,1 Parking,,latrobe-valley-vicwangaratta-vic,-37.7534371,144.9221626
,,$700,"52 Bulbul Cresent,",FLETCHER NSW 2287,3 Beds,2 Baths,1 Parking,,latrobe-valley-vicwangaratta-vic,-32.87232,151.64008
,,$800 per week,"811/35 Furzer Street,",PHILLIP ACT 2606,3 Beds,2 Baths,2 Parking,,latrobe-valley-vicwangaratta-vic,-35.3436731,149.0842998
,,$500.00 per week,"6/5 Parkhill Street,",PEARCE ACT 2607,2 Beds,1 Bath,1 Parking,,latrobe-valley-vicwangaratta-vic,-35.3629171,149.0807051
,,$540 per week + 1 week of free rent,"306/11 Launceston Street,",PHILLIP ACT 2606,2 Beds,2 Baths,1 Parking,,latrobe-valley-vicwangaratta-vic,-35.3413702,149.086896
,,$1200 per week,"10 Baas Becking Street,",WHITLAM ACT 2611,4 Beds,3 Baths,2 Parking,,latrobe-valley-vicwangaratta-vic,-35.2743252,149.0445177
,,$650 per week,"4/61 Launceston Street,",LYONS ACT 2606,3 Beds,2 Baths,2 Parking,,latrobe-valley-vicwangaratta-vic,-35.3398343,149.0820314
,,$470,"706 Tinonee Road,",MONDROOK NSW 2430,3 Beds,2 Baths,1 Parking,,latrobe-valley-vicwangaratta-vic,-31.9024341,152.3917953
,,$650,"20 Jacaranda Avenue,",TAREE NSW 2430,4 Beds,3 Baths,5 Parking,,latrobe-valley-vicwangaratta-vic,-31.8934285,152.4833005
,,$580 per week,"303/76 Steve Irwin Avenue,",WRIGHT ACT 2611,2 Beds,2 Baths,2 Parking,,latrobe-valley-vicwangaratta-vic,-35.3197585,149.0371889
,,$800 per week,"1506/15 Bowes Street,",PHILLIP ACT 2606,3 Beds,2 Baths,2 Parking,,latrobe-valley-vicwangaratta-vic,-35.3436934,149.0861817
,,$690 weekly,"30/2 Hopegood Place,",GARRAN ACT 2605,3 Beds,2 Baths,2 Parking,,latrobe-valley-vicwangaratta-vic,-35.3438019,149.1067768
,,$710,"1810/49 Furzer Street,",PHILLIP ACT 2606,3 Beds,2 Baths,2 Parking,,latrobe-valley-vicwangaratta-vic,-35.3436731,149.0842998
,,$650,"1521D Moss Vale Rd,",KANGAROO VALLEY NSW 2577,4 Beds,2 Baths,− Parking,,latrobe-valley-vicwangaratta-vic,-34.7271908,150.5207587
,,$620 Per Week,"4 Horrocks Street,",TORRENS ACT 2607,3 Beds,2 Baths,1 Parking,,latrobe-valley-vicwangaratta-vic,-35.3690238,149.0882282
,,$460 per week,"268/7 Irving Street,",PHILLIP ACT 2606,1 Bed,1 Bath,1 Parking,,latrobe-valley-vicwangaratta-vic,-35.3396914,149.0842859
,,$540 per week,"98/41 Philip Hodgins Street,",WRIGHT ACT 2611,2 Beds,2 Baths,1 Parking,,latrobe-valley-vicwangaratta-vic,-35.3201139,149.0319572
,,$500 weekly,"8/9 Farrer Place,",FARRER ACT 2607,2 Beds,1 Bath,1 Parking,,latrobe-valley-vicwangaratta-vic,-35.3757398,149.1015688
,,$620 per week,"15 Sulman Place,",PHILLIP ACT 2606,2 Beds,1 Bath,2 Parking,,latrobe-valley-vicwangaratta-vic,-35.3527116,149.0962572
,,"$1,300","89 Fox Valley Rd,",WAHROONGA NSW 2076,4 Beds,2 Baths,1 Parking,,latrobe-valley-vicwangaratta-vic,-33.727729,151.110985
,,$1000 per week,"3 Gouger Street,",TORRENS ACT 2607,5 Beds,2 Baths,1 Parking,,latrobe-valley-vicwangaratta-vic,-35.3770862,149.0870009
,,$580 Per Week,"711/15 Bowes Street,",PHILLIP ACT 2606,2 Beds,2 Baths,1 Parking,,latrobe-valley-vicwangaratta-vic,-35.3436934,149.0861817
,,$430 per week,"141/41 Philip Hodgins Street,",WRIGHT ACT 2611,1 Bed,1 Bath,1 Parking,,latrobe-valley-vicwangaratta-vic,-35.3201139,149.0319572
,,$950 pw,"1/266 Abercrombie Street,",DARLINGTON NSW 2330,2 Beds,1 Bath,− Parking,,latrobe-valley-vicwangaratta-vic,-33.8911102,151.1961307
,,$760 Per Week,"10 Pope Street,",HUGHES ACT 2605,3 Beds,1 Bath,3 Parking,"1,114m²",latrobe-valley-vicwangaratta-vic,-35.3368605,149.0910231
,,$530 pw,"313/1050 Mt Alexander Road,",ESSENDON VIC 3040,2 Beds,2 Baths,1 Parking,,latrobe-valley-vicwangaratta-vic,-37.7538,144.8883
,,$595 pw,"311/333 Ascot Vale Road,",MOONEE PONDS VIC 3039,2 Beds,2 Baths,1 Parking,,latrobe-valley-vicwangaratta-vic,-37.7667,144.9167
,,$930 - $950 per week,"117 Ada Norris Avenue,",DENMAN PROSPECT ACT 2611,4 Beds,2 Baths,2 Parking,,latrobe-valley-vicwangaratta-vic,-35.303567,149.0187725
,,"$1,900","13 Amanda Street,",BROOKFIELD QLD 4069,7 Beds,5 Baths,9 Parking,1.85ha,latrobe-valley-vicwangaratta-vic,-27.5099123,152.9258298
,,"$1,150 per week","2203/49 Furzer Street,",PHILLIP ACT 2606,3 Beds,2 Baths,2 Parking,,latrobe-valley-vicwangaratta-vic,-35.3436731,149.0842998
,,"$1,100 per week","2202/49 Furzer Street,",PHILLIP ACT 2606,3 Beds,2 Baths,2 Parking,,latrobe-valley-vicwangaratta-vic,-35.3406,149.074
,,$500,"146/7 Irving Street,",PHILLIP ACT 2606,1 Bed,1 Bath,1 Parking,,latrobe-valley-vicwangaratta-vic,-35.3396914,149.0842859
,,$700 weekly,"4a Harvey Road,",FOREST HILL QLD 4342,4 Beds,2 Baths,2 Parking,,latrobe-valley-vicwangaratta-vic,-27.5721472,152.3867092
,,$720 per week,"621/15 Bowes Street,",PHILLIP ACT 2606,3 Beds,2 Baths,2 Parking,,latrobe-valley-vicwangaratta-vic,-35.3436934,149.0861817
,,$690 per week,"6A Esk Place,",LYONS ACT 2606,4 Beds,1 Bath,2 Parking,,latrobe-valley-vicwangaratta-vic,-35.3352501,149.0715599
,,$240,"63 Pintail Drive,",MELTON SOUTH VIC 3338,1 Bed,1 Bath,− Parking,,latrobe-valley-vicwangaratta-vic,-37.719208,144.5789327
,,$250,"8 Jacobena Road,",MELTON SOUTH VIC 3338,1 Bed,1 Bath,− Parking,,latrobe-valley-vicwangaratta-vic,-37.7140748,144.5662005
,,$380 - $400 per week,"220 Melrose Drive,",PHILLIP ACT 2606,1 Bed,1 Bath,− Parking,,latrobe-valley-vicwangaratta-vic,-35.3452346,149.0830029
$620 pw,,$620 pw,"5A Eldon Place,",LYONS ACT 2606,3 Beds,1 Bath,1 Parking,,latrobe-valley-vicwangaratta-vic,-35.3364404,149.0762119
,,$675 per week,"13 Mawson Drive,",MAWSON ACT 2607,4 Beds,1 Bath,2 Parking,,latrobe-valley-vicwangaratta-vic,-35.364237,149.0929098
,,$400.00 P/W,"67/4 Wilkins Street,",MAWSON ACT 2607,2 Beds,1 Bath,1 Parking,,latrobe-valley-vicwangaratta-vic,-35.3695091,149.0992764
,,$400 p.w,"11/a Address Upon Request,",CANNON VALLEY QLD 4800,1 Bed,1 Bath,1 Parking,,latrobe-valley-vicwangaratta-vic,-20.28333,148.68333
,,"$1,200.00","24 Wattle Valley Road,",CANTERBURY VIC 3126,4 Beds,2 Baths,− Parking,,latrobe-valley-vicwangaratta-vic,-37.8327908,145.0816254
,,$1650 per week,"16/10 Taronga Place,",O'MALLEY ACT 2606,4 Beds,2 Baths,2 Parking,,latrobe-valley-vicwangaratta-vic,-35.3570268,149.1085724
,,$500 per week,"1A Gerogery Place,",O'MALLEY ACT 2606,1 Bed,1 Bath,2 Parking,,latrobe-valley-vicwangaratta-vic,-35.3563784,149.1064636
,,$400 - $550 per week,"2 Furzer Street,",PHILLIP ACT 2606,1 Bed,1 Bath,− Parking,,latrobe-valley-vicwangaratta-vic,-35.3436731,149.0842998
,,$560 per week and 2 weeks free rent!,"1317/15 Bowes Street,",PHILLIP ACT 2606,2 Beds,2 Baths,1 Parking,,latrobe-valley-vicwangaratta-vic,-35.3436934,149.0861817
,,$525 Per Week,"43/G04 Arthur Blakeley Way,",COOMBS ACT 2611,2 Beds,1 Bath,1 Parking,,latrobe-valley-vicwangaratta-vic,-35.3159186,149.0373279
,,$3500.00 per week,"17 Greville Street,",CLOVELLY NSW 2031,7 Beds,4 Baths,2 Parking,,latrobe-valley-vicwangaratta-vic,-33.9100583,151.2570188
,,$550 per week,"1705/49 Furzer Street,",PHILLIP ACT 2606,2 Beds,1 Bath,1 Parking,,latrobe-valley-vicwangaratta-vic,-35.3436731,149.0842998
,,$570 weekly,"1703/15 Bowes Street,",PHILLIP ACT 2606,2 Beds,2 Baths,1 Parking,,latrobe-valley-vicwangaratta-vic,-35.3436934,149.0861817
,,$520 Per Week,"210/55 Collins Street,",ESSENDON VIC 3040,2 Beds,2 Baths,1 Parking,,latrobe-valley-vicwangaratta-vic,-37.7467348,144.9072533
,,$580 pw,"1210/49 Furzer Street,",PHILLIP ACT 2606,2 Beds,1 Bath,1 Parking,,latrobe-valley-vicwangaratta-vic,-35.3436731,149.0842998
,,$520 Per Week,"4/6 Antis Street,",PHILLIP ACT 2606,2 Beds,1 Bath,1 Parking,,latrobe-valley-vicwangaratta-vic,-35.3459528,149.0955551
,,$700 per week,"4 Horrocks Street,",TORRENS ACT 2607,3 Beds,2 Baths,1 Parking,,latrobe-valley-vicwangaratta-vic,-35.3690238,149.0882282
,,$645.00,"2 Canterbury Street,",HUGHESDALE VIC 3166,3 Beds,1 Bath,2 Parking,,latrobe-valley-vicwangaratta-vic,-37.901016,145.0818071
,,$700 weekly,"31/2 Hopegood Place,",GARRAN ACT 2605,3 Beds,2 Baths,2 Parking,,latrobe-valley-vicwangaratta-vic,-35.3438019,149.1067768
,,$725.00 per week,"14 Besant Street,",PEARCE ACT 2607,4 Beds,2 Baths,1 Parking,,latrobe-valley-vicwangaratta-vic,-35.3649448,149.0853477
,,$710,"1510/49 Furzer Street,",PHILLIP ACT 2606,3 Beds,2 Baths,2 Parking,,latrobe-valley-vicwangaratta-vic,-35.3436731,149.0842998
,,$590 pw,"217/2 Terry Connolly Street,",COOMBS ACT 2611,2 Beds,2 Baths,2 Parking,,latrobe-valley-vicwangaratta-vic,-35.3212648,149.04567
,,$560pw,"612/2 Furzer Street,",PHILLIP ACT 2606,2 Beds,2 Baths,1 Parking,,latrobe-valley-vicwangaratta-vic,-35.3436731,149.0842998
,,$575 pw,"Level 15, 1501/2 Furzer Street,",PHILLIP ACT 2606,2 Beds,2 Baths,1 Parking,,latrobe-valley-vicwangaratta-vic,-35.3436731,149.0842998
$480 per week,,$480 per week,"49 Furzer Street,",PHILLIP ACT 2606,1 Bed,1 Bath,1 Parking,,latrobe-valley-vicwangaratta-vic,-35.3436731,149.0842998
,,$450 per week,"1408/49 Furzer Street,",PHILLIP ACT 2606,1 Bed,1 Bath,1 Parking,,latrobe-valley-vicwangaratta-vic,-35.3436731,149.0842998
,,$570 per week,"110 Paterson Road,",BOLWARRA NSW 2320,3 Beds,1 Bath,1 Parking,,latrobe-valley-vicwangaratta-vic,-32.7073157,151.5761053
,,$650 per week,"16 Launceston Street,",LYONS ACT 2606,3 Beds,1 Bath,2 Parking,,latrobe-valley-vicwangaratta-vic,-35.3398343,149.0820314
,,$540 pw,"1105/49 Furzer Street,",PHILLIP ACT 2606,2 Beds,1 Bath,1 Parking,,latrobe-valley-vicwangaratta-vic,-35.3406,149.074
$670.00 weekly,,$670.00 weekly,"224 GEORGE STREET,",EAST MAITLAND NSW 2323,3 Beds,2 Baths,1 Parking,,latrobe-valley-vicwangaratta-vic,-32.7526628,151.585183
,,$650 pw,"309/333 Ascot Vale Road,",MOONEE PONDS VIC 3039,2 Beds,2 Baths,1 Parking,,latrobe-valley-vicwangaratta-vic,-37.7676521,144.9248711
,,$575.00,"103 Long Gully Road,",ANGASTON SA 5353,4 Beds,1 Bath,4 Parking,,latrobe-valley-vicwangaratta-vic,-34.5243868,139.0395983
,,$430 per week,"156/41 Philip Hodgins Street,",WRIGHT ACT 2611,1 Bed,1 Bath,1 Parking,,latrobe-valley-vicwangaratta-vic,-35.3201139,149.0319572
,,$895 per week,"12 Engel Street,",COOMBS ACT 2611,4 Beds,2 Baths,2 Parking,,latrobe-valley-vicwangaratta-vic,-35.3152697,149.0397548
,,$430 per week,"121/41 Philip Hodgins Street,",WRIGHT ACT 2611,1 Bed,1 Bath,1 Parking,,latrobe-valley-vicwangaratta-vic,-35.3201139,149.0319572
,,$700 per week,"1505/120 Eastern Valley Way,",BELCONNEN ACT 2617,3 Beds,2 Baths,2 Parking,,latrobe-valley-vicwangaratta-vic,-35.2407295,149.0731645
,,$1450 Per Week,"5A Stephens Place,",GARRAN ACT 2605,4 Beds,2 Baths,4 Parking,,latrobe-valley-vicwangaratta-vic,-35.3417145,149.1063627
,,$790 Per Week,"35/11 Irving Street,",PHILLIP ACT 2606,3 Beds,2 Baths,2 Parking,,latrobe-valley-vicwangaratta-vic,-35.3396914,149.0842859
,,$535 per week,"609/15 Bowes Street,",PHILLIP ACT 2606,2 Beds,2 Baths,1 Parking,,latrobe-valley-vicwangaratta-vic,-35.3436934,149.0861817
,,$730 Parkside living Highspeed unlimited WiFi PetFriendly,"224/109 Manningham St,",PARKVILLE VIC 3052,1 Bed,1 Bath,1 Parking,,latrobe-valley-vicwangaratta-vic,-37.7877105,144.9423529
,,$665 Parkside living Highspeed unlimited WiFi PetFriendly,"225/109 Manningham St,",PARKVILLE VIC 3052,2 Beds,2 Baths,1 Parking,,latrobe-valley-vicwangaratta-vic,-37.7877105,144.9423529
,,$750 per week Parkside living Highspeed unlimited WiFi PetFriendly,"403/109 Manningham St,",PARKVILLE VIC 3052,2 Beds,2 Baths,1 Parking,,latrobe-valley-vicwangaratta-vic,-37.7877105,144.9423529
,,$460 per week,"26/11 Hoolihan Street,",DENMAN PROSPECT ACT 2611,1 Bed,1 Bath,1 Parking,,latrobe-valley-vicwangaratta-vic,-35.3038769,149.0315702
,,$400 Per Week,"105/11 Launceston Street,",PHILLIP ACT 2606,1 Bed,1 Bath,− Parking,,latrobe-valley-vicwangaratta-vic,-35.3413702,149.086896
,,$560-$620 pw,"49 Furzer Street,",PHILLIP ACT 2606,2 Beds,1 Bath,1 Parking,,latrobe-valley-vicwangaratta-vic,-35.3436731,149.0842998
,,$460 pw,"702/49 Furzer Street,",PHILLIP ACT 2606,1 Bed,1 Bath,1 Parking,,latrobe-valley-vicwangaratta-vic,-35.3436731,149.0842998
,,$580 pw,"1006/2 Furzer Street,",PHILLIP ACT 2606,2 Beds,2 Baths,1 Parking,,latrobe-valley-vicwangaratta-vic,-35.3436731,149.0842998
,,$950 Parkside living Highspeed unlimited WiFi PetFriendly,"607/109 109 Manningham St,",PARKVILLE VIC 3052,2 Beds,2 Baths,1 Parking,,latrobe-valley-vicwangaratta-vic,-37.7603,144.9502
,,$1450 per week,"50 Ngunnawal Drive,",ISAACS ACT 2607,5 Beds,4 Baths,5 Parking,,latrobe-valley-vicwangaratta-vic,-35.3767,149.105
,,$525 Per Week,"17/13 Devlin Street,",RYDE NSW 2112,2 Beds,1 Bath,1 Parking,,latrobe-valley-vicwangaratta-vic,-33.8168018,151.1025321
,,$475 pw,"608/333 Ascot Vale Road,",MOONEE PONDS VIC 3039,1 Bed,1 Bath,1 Parking,,latrobe-valley-vicwangaratta-vic,-37.7667,144.9167
,,"$1,000","43/9 Doggett St,",FORTITUDE VALLEY QLD 4006,3 Beds,2 Baths,2 Parking,,latrobe-valley-vicwangaratta-vic,-27.4567365,153.0407509
$820 per week,,$820 per week,"76 Arthur Blakeley Way,",COOMBS ACT 2611,4 Beds,3 Baths,2 Parking,,latrobe-valley-vicwangaratta-vic,-35.3159186,149.0373279
$820 per week,,$820 per week,"76 Arthur Blakeley Way,",COOMBS ACT 2611,4 Beds,3 Baths,2 Parking,,latrobe-valley-vicwangaratta-vic,-35.3159186,149.0373279
,,$880 per week,"129 McMichael Terrace,",DENMAN PROSPECT ACT 2611,4 Beds,2 Baths,3 Parking,,latrobe-valley-vicwangaratta-vic,-35.2997895,149.0268607
,,$540.00,"110/119 Poath Road,",MURRUMBEENA VIC 3163,2 Beds,1 Bath,1 Parking,,latrobe-valley-vicwangaratta-vic,-37.8877788,145.0780149
,,$550 per week,"2 beds, 2/11 Launceston Street,",PHILLIP ACT 2606,2 Beds,2 Baths,2 Parking,,latrobe-valley-vicwangaratta-vic,-35.3406,149.074
,,$430 per week,"1 bedroom/11 Launceston Street,",PHILLIP ACT 2606,1 Bed,1 Bath,1 Parking,,latrobe-valley-vicwangaratta-vic,-35.3406,149.074
,,$530 per week,"2 bed, 1 c/11 Launceston Street,",PHILLIP ACT 2606,2 Beds,2 Baths,1 Parking,,latrobe-valley-vicwangaratta-vic,-35.3406,149.074
,,$430 per week,"1 bedroom/6 Furzer Street,",PHILLIP ACT 2606,1 Bed,1 Bath,1 Parking,,latrobe-valley-vicwangaratta-vic,-35.3406,149.074
,,$530 per week,"2 bed, 1 c/6 Furzer Street,",PHILLIP ACT 2606,2 Beds,2 Baths,1 Parking,,latrobe-valley-vicwangaratta-vic,-35.3406,149.074
,,$430 per week,"1 bedroom/2 Furzer Street,",PHILLIP ACT 2606,1 Bed,1 Bath,1 Parking,,latrobe-valley-vicwangaratta-vic,-35.3406,149.074
,,$550 per week,"2 bed, 2 c/6 Furzer Street,",PHILLIP ACT 2606,2 Beds,2 Baths,2 Parking,,latrobe-valley-vicwangaratta-vic,-35.3406,149.074
,,$530 per week,"2 bed, 1/2 Furzer Street,",PHILLIP ACT 2606,2 Beds,2 Baths,1 Parking,,latrobe-valley-vicwangaratta-vic,-35.3406,149.074
,,$490 per week,"1+ study/2 Furzer Street,",PHILLIP ACT 2606,1 Bed,1 Bath,1 Parking,,latrobe-valley-vicwangaratta-vic,-35.3406,149.074
,,$530 per week,"4/53 Port Jackson Circuit,",PHILLIP ACT 2606,2 Beds,1 Bath,1 Parking,,latrobe-valley-vicwangaratta-vic,-35.3480751,149.0936894
,,$670 - $680 per week,"2004/2 Furzer Street,",PHILLIP ACT 2606,2 Beds,2 Baths,1 Parking,,latrobe-valley-vicwangaratta-vic,-35.3436731,149.0842998
,,$175 per week,"1009 Old Bruce Highway,",KYBONG QLD 4570,1 Bed,1 Bath,− Parking,,latrobe-valley-vicwangaratta-vic,-26.251989,152.7056265
,,$590 to $610 pw,"2C/2 Furzer Street,",PHILLIP ACT 2606,2 Beds,2 Baths,2 Parking,,latrobe-valley-vicwangaratta-vic,-35.3436731,149.0842998
,,$815 pw,"151/9 Irving Street,",PHILLIP ACT 2606,3 Beds,2 Baths,2 Parking,,latrobe-valley-vicwangaratta-vic,-35.3396914,149.0842859
,,$730 - $750 per week,"65/96 McMichael Tce,",DENMAN PROSPECT ACT 2611,3 Beds,2 Baths,2 Parking,,latrobe-valley-vicwangaratta-vic,-35.2997895,149.0268607
,,$610 pw,"806/673 Latrobe Street,",DOCKLANDS VIC 3008,2 Beds,2 Baths,1 Parking,,latrobe-valley-vicwangaratta-vic,-37.8149,144.9505
,,$430 per week,"109/41 Philip Hodgins Street,",WRIGHT ACT 2611,1 Bed,1 Bath,1 Parking,,latrobe-valley-vicwangaratta-vic,-35.3201139,149.0319572
,,$470,"2 Furzer Street,",PHILLIP ACT 2606,1 Bed,1 Bath,1 Parking,,latrobe-valley-vicwangaratta-vic,-35.3436731,149.0842998
,,"$1,250","7 Golgerth Street,",DENMAN PROSPECT ACT 2611,4 Beds,3 Baths,2 Parking,,latrobe-valley-vicwangaratta-vic,-35.3029208,149.0184729
,,$665,"28/135 Easty Street,",PHILLIP ACT 2606,2 Beds,2 Baths,2 Parking,,latrobe-valley-vicwangaratta-vic,-35.3410517,149.0893609
,,$620,"150A McCarthy Road,",WALLAROO NSW 2618,2 Beds,1 Bath,2 Parking,,latrobe-valley-vicwangaratta-vic,47.42478,7.59054
,,$890 pw,"1906/15 Bowes Street,",PHILLIP ACT 2606,3 Beds,2 Baths,2 Parking,,latrobe-valley-vicwangaratta-vic,-35.3436934,149.0861817
,,$580 pw,"49 Furzer Street,",PHILLIP ACT 2606,2 Beds,2 Baths,1 Parking,,latrobe-valley-vicwangaratta-vic,-35.3436731,149.0842998
,,$540 pw,"320/43 Arthur Blakeley Way,",COOMBS ACT 2611,2 Beds,1 Bath,2 Parking,,latrobe-valley-vicwangaratta-vic,-35.3159186,149.0373279
,,$575.00 per week,"33 Gledden Street,",CHIFLEY ACT 2606,3 Beds,1 Bath,1 Parking,,latrobe-valley-vicwangaratta-vic,-35.3550421,149.0808296
,,$850 per week,"229 Sculthorpe Ave,",WHITLAM ACT 2611,3 Beds,2 Baths,2 Parking,,latrobe-valley-vicwangaratta-vic,-35.2770409,149.0338783
,,$485.00 per week,"9A Muecke Place,",ISAACS ACT 2607,1 Bed,1 Bath,− Parking,,latrobe-valley-vicwangaratta-vic,-35.362491,149.1124351
,,$1500.00 per week,"5 Gerogery Place,",O'MALLEY ACT 2606,5 Beds,3 Baths,3 Parking,,latrobe-valley-vicwangaratta-vic,-35.3563784,149.1064636
$650.00 weekly,,$650.00 weekly,"59/1 BALGOWNIE CIRCUIT,",HEDDON GRETA NSW 2321,4 Beds,2 Baths,1 Parking,,latrobe-valley-vicwangaratta-vic,-32.809123,151.5141342
,,$1050 per week,"127 Sculthorpe Avenue,",WHITLAM ACT 2611,4 Beds,3 Baths,2 Parking,,latrobe-valley-vicwangaratta-vic,-35.2770409,149.0338783
,,$575 per week,"38 Devonport Street,",LYONS ACT 2606,3 Beds,1 Bath,1 Parking,,latrobe-valley-vicwangaratta-vic,-35.3399729,149.0765596
$640.00 weekly,,$640.00 weekly,"29 LAKESIDE CIRCUIT,",CESSNOCK NSW 2325,4 Beds,2 Baths,2 Parking,,latrobe-valley-vicwangaratta-vic,-32.8323797,151.3299667
,,"$1,100 - $1,200 per week","60 Thwaites Crescent,",WRIGHT ACT 2611,4 Beds,3 Baths,2 Parking,,latrobe-valley-vicwangaratta-vic,-35.3122512,149.0270765
,,$900 Not furnished,"207B/176 Blaxland Road,",RYDE NSW 2112,2 Beds,2 Baths,1 Parking,,latrobe-valley-vicwangaratta-vic,14.2766,46.8693
,,$1200 Furnished,"604A/176 Blaxland Road,",RYDE NSW 2112,2 Beds,2 Baths,1 Parking,,latrobe-valley-vicwangaratta-vic,14.2766,46.8693
,,$500 per week,"99 121 Easty Street,",PHILLIP ACT 2606,1 Bed,1 Bath,1 Parking,,latrobe-valley-vicwangaratta-vic,-35.3410517,149.0893609
,,$760 per week,"11/135 Easty Street,",PHILLIP ACT 2606,3 Beds,2 Baths,2 Parking,,latrobe-valley-vicwangaratta-vic,-35.3410517,149.0893609
,,$670 Parkside living Highspeed unlimited WiFi PetFriendly,"121 109 Manningham St,",PARKVILLE VIC 3052,1 Bed,1 Bath,1 Parking,,latrobe-valley-vicwangaratta-vic,-37.7877105,144.9423529
$595 - $596 per week,,$595 - $596 per week,"33 Currong Street,",REID ACT 2612,2 Beds,1 Bath,1 Parking,,latrobe-valley-vicwangaratta-vic,-35.2839691,149.1432609
$700 per week,,$700 per week,"12/3 Felstead Vista,",DENMAN PROSPECT ACT 2611,2 Beds,2 Baths,2 Parking,"8,875m²",latrobe-valley-vicwangaratta-vic,-35.2988472,149.023544
,,$565 per week,"12/2 Bamblett Rise,",DENMAN PROSPECT ACT 2611,2 Beds,1 Bath,2 Parking,,latrobe-valley-vicwangaratta-vic,-35.3037866,149.0306555
,,$480.00 pw,"76/121 Easty Street,",PHILLIP ACT 2606,1 Bed,1 Bath,1 Parking,,latrobe-valley-vicwangaratta-vic,-35.3410517,149.0893609
,,$850 per week,"41/8 Ken Tribe Street,",COOMBS ACT 2611,3 Beds,2 Baths,2 Parking,,latrobe-valley-vicwangaratta-vic,-35.3166815,149.0409183
,,"$1,200 per week","60 Thwaites Crescent,",WRIGHT ACT 2611,5 Beds,3 Baths,2 Parking,,latrobe-valley-vicwangaratta-vic,-35.3122512,149.0270765
,,$790 per week,"65/96 McMichael Tce,",DENMAN PROSPECT ACT 2611,3 Beds,3 Baths,2 Parking,,latrobe-valley-vicwangaratta-vic,-35.2997895,149.0268607
,,$820 weekly,"3A Olympus Way,",LYONS ACT 2606,4 Beds,2 Baths,2 Parking,,latrobe-valley-vicwangaratta-vic,-35.3398923,149.0729074
,,$650 weekly,"53 Tipperary Dr,",ASHTONFIELD NSW 2323,4 Beds,2 Baths,2 Parking,,latrobe-valley-vicwangaratta-vic,-32.7764481,151.5848859
,,$945 per week,"31/116 Easty Street,",WODEN ACT 2606,1 Bed,1 Bath,1 Parking,"14,129m²",latrobe-valley-vicwangaratta-vic,-35.3410517,149.0893609
,,$550,"17 Stephens Street,",KANDANGA QLD 4570,2 Beds,1 Bath,1 Parking,,latrobe-valley-vicwangaratta-vic,-26.3886676,152.6779521
,,$450 Weekly,"20 Couttaroo Place,",COUTTS CROSSING NSW 2460,3 Beds,1 Bath,4 Parking,,latrobe-valley-vicwangaratta-vic,-29.8332764,152.8907097
,,$550,"1007/10 Trinity Street,",FORTITUDE VALLEY QLD 4006,1 Bed,1 Bath,1 Parking,,latrobe-valley-vicwangaratta-vic,-27.4533792,153.030899
,,$500 pw,"1105/35 Hall Street,",MOONEE PONDS VIC 3039,1 Bed,1 Bath,− Parking,,latrobe-valley-vicwangaratta-vic,-37.7661867,144.9232616
,,$550 / Wk,"6 Weld Crescent,",HOPE VALLEY SA 5090,3 Beds,1 Bath,2 Parking,,latrobe-valley-vicwangaratta-vic,-34.8448693,138.706992
,,$570.00 Per Week,"25 Finnegan Crescent,",MUSWELLBROOK NSW 2333,4 Beds,1 Bath,2 Parking,555m²,latrobe-valley-vicwangaratta-vic,-32.2791887,150.886303
,,$480.00 Per Week,"2/2 Kennedy Close,",MUSWELLBROOK NSW 2333,3 Beds,2 Baths,1 Parking,,latrobe-valley-vicwangaratta-vic,-32.2805694,150.8886612
,,$520,"3/1 Waller Street,",EAST MAITLAND NSW 2323,2 Beds,2 Baths,1 Parking,,latrobe-valley-vicwangaratta-vic,-32.7508797,151.5942001
,,$640,"807/348 Water Street,",FORTITUDE VALLEY QLD 4006,2 Beds,2 Baths,1 Parking,,latrobe-valley-vicwangaratta-vic,47.35156,8.10669
,,$950.00,"340 Wattle Ponds Road,",SINGLETON NSW 2330,4 Beds,2 Baths,3 Parking,2.06ha,latrobe-valley-vicwangaratta-vic,-32.5343487,151.1749139
,,$460 weekly,"2b Rae St,",CESSNOCK NSW 2325,3 Beds,2 Baths,1 Parking,,latrobe-valley-vicwangaratta-vic,-32.8234293,151.3725195
,,$480 Per Week,"2 Coneybeer Street,",BERRI SA 5343,3 Beds,1 Bath,3 Parking,,latrobe-valley-vicwangaratta-vic,-34.284955,140.5998793
,,$550 per week inc mowing,"12 River Street,",BOWRAVILLE NSW 2449,3 Beds,1 Bath,1 Parking,,latrobe-valley-vicwangaratta-vic,-30.6432888,152.8557561
,,$650 per week,"7 Monterey Court,",MILL PARK VIC 3082,3 Beds,1 Bath,1 Parking,576m²,latrobe-valley-vicwangaratta-vic,-37.6703233,145.044045
,,$520,"ID:3786840/59 Robertson Street,",FORTITUDE VALLEY QLD 4006,1 Bed,1 Bath,1 Parking,,latrobe-valley-vicwangaratta-vic,47.35156,8.10669
,,$460 weekly,"54A Ardennes Circuit,",GILLIESTON HEIGHTS NSW 2321,2 Beds,1 Bath,1 Parking,,latrobe-valley-vicwangaratta-vic,-32.7688695,151.5223598
,,$440 p/week,"3/50 Catherine Street,",CESSNOCK NSW 2325,2 Beds,1 Bath,1 Parking,,latrobe-valley-vicwangaratta-vic,-32.8418038,151.3396522
,,$380 Per Week,"3/41 Alick Street,",BELMONT NSW 2280,2 Beds,1 Bath,1 Parking,,latrobe-valley-vicwangaratta-vic,-33.0407583,151.659027
,,$660pw,"12/41 Pearlman Street,",COOMBS ACT 2611,3 Beds,2 Baths,2 Parking,,latrobe-valley-vicwangaratta-vic,-35.3240461,149.04869
,,$690,"23 Grasshawk Drive,",CHISHOLM NSW 2322,4 Beds,2 Baths,2 Parking,,latrobe-valley-vicwangaratta-vic,-32.7562944,151.6294171
,,$380 per week,"43 Tarwin Street,",BOOLARRA VIC 3870,3 Beds,1 Bath,4 Parking,,latrobe-valley-vicwangaratta-vic,-38.3812507,146.270966
,,$475 per week,"216/110 Keilor Road,",ESSENDON NORTH VIC 3041,2 Beds,2 Baths,1 Parking,,latrobe-valley-vicwangaratta-vic,-37.7441978,144.9096142
,,$580,"89 St Georges Road,",TRARALGON VIC 3844,4 Beds,2 Baths,2 Parking,,latrobe-valley-vicwangaratta-vic,-38.1821833,146.5256322
,,$660 Weekly,"12 Cassandra Close,",NORTH BOAMBEE VALLEY NSW 2450,3 Beds,1 Bath,1 Parking,,latrobe-valley-vicwangaratta-vic,-30.3045999,153.0989169
,,$800 per week,"29 Konara Street,",LEPPINGTON NSW 2179,4 Beds,3 Baths,1 Parking,300m²,latrobe-valley-vicwangaratta-vic,-33.98203,150.80431
,,$400 weekly,"2/10 Innes St,",NORTH ROTHBURY NSW 2335,2 Beds,1 Bath,1 Parking,,latrobe-valley-vicwangaratta-vic,46.58311,6.88295
,,FULLY FURNISHED $900 per week,"3/15 Market Street,",SINGLETON NSW 2330,2 Beds,2 Baths,2 Parking,,latrobe-valley-vicwangaratta-vic,-32.561761,151.1788688
,,$520 pw / $2260 pcm,"5/13 Winifred Street,",ESSENDON VIC 3040,2 Beds,1 Bath,1 Parking,,latrobe-valley-vicwangaratta-vic,-37.74418,144.9118769
,,$860 PER WEEK,"34 Onthonna Terrace,",UMINA BEACH NSW 2257,4 Beds,2 Baths,2 Parking,,latrobe-valley-vicwangaratta-vic,-33.5334273,151.3047748
,,$530 weekly,"59 Leumeah Ave,",CHAIN VALLEY BAY NSW 2259,3 Beds,1 Bath,1 Parking,,latrobe-valley-vicwangaratta-vic,-33.1786734,151.5610821
,,$800 pw,"23 Mulumulung Street,",AUSTRAL NSW 2179,4 Beds,2 Baths,1 Parking,,latrobe-valley-vicwangaratta-vic,-33.9409659,150.7952812
,,$450 Per Week,"5 Wakeham Road,",THE DAWN QLD 4570,3 Beds,1 Bath,1 Parking,,latrobe-valley-vicwangaratta-vic,-26.2430774,152.6802556
,,$450 pw,"7 Farmer Crescent,",TRARALGON VIC 3844,3 Beds,2 Baths,2 Parking,696m²,latrobe-valley-vicwangaratta-vic,-38.1857905,146.5241505
,,$600,"15 Donald Avenue,",ESSENDON VIC 3040,3 Beds,1 Bath,3 Parking,,latrobe-valley-vicwangaratta-vic,-37.7535112,144.9332026
,,$500 per week,"2/123 Watkins St,",WHITE GUM VALLEY WA 6162,2 Beds,1 Bath,1 Parking,,latrobe-valley-vicwangaratta-vic,-32.0602707,115.7600779
,,$740 pw,"59 Rigby Drive,",NORTH ROTHBURY NSW 2335,4 Beds,2 Baths,2 Parking,,latrobe-valley-vicwangaratta-vic,46.58311,6.88295
,,$500 pw,"52 Hammersmith Circuit,",TRARALGON VIC 3844,3 Beds,2 Baths,2 Parking,522m²,latrobe-valley-vicwangaratta-vic,-38.1819273,146.5512656
,,$700.00 PER WEEK - FURNISHED!,"62 The Drive,",YAMBA NSW 2464,3 Beds,2 Baths,2 Parking,488m²,latrobe-valley-vicwangaratta-vic,-29.443035,153.3623166
,,$350 per week,"117 North Huon Road,",RANELAGH TAS 7109,2 Beds,1 Bath,2 Parking,,latrobe-valley-vicwangaratta-vic,-43.011036,147.009534
,,$920 per week,"107 Piggabeen Road,",CURRUMBIN WATERS QLD 4223,3 Beds,1 Bath,4 Parking,,latrobe-valley-vicwangaratta-vic,-28.1826857,153.4438805
,,$500 per week,"36 Cemetery Road,",DOVER TAS 7117,3 Beds,2 Baths,4 Parking,,latrobe-valley-vicwangaratta-vic,-43.3272437,146.998205
,,$480 PW / AVAIL. 18.11.24,"20 Lawn Avenue,",TRARALGON VIC 3844,3 Beds,2 Baths,2 Parking,568m²,latrobe-valley-vicwangaratta-vic,-38.2029,146.5480034
,,$650 PER WEEK,"6 Skehan Place,",EPPING VIC 3076,5 Beds,2 Baths,2 Parking,511m²,latrobe-valley-vicwangaratta-vic,-37.6377002,145.0369396
,,$400.00 per week including water usage,"22a Third Street,",WESTON NSW 2326,2 Beds,1 Bath,− Parking,,latrobe-valley-vicwangaratta-vic,-32.8125599,151.4622231
,,$510 per week,"207/6 Leicester Street,",CARLTON VIC 3053,1 Bed,1 Bath,− Parking,,latrobe-valley-vicwangaratta-vic,-37.802198,144.9607524
,,$450 per week,"Unit 1113/6 Leicester St,",CARLTON VIC 3053,1 Bed,1 Bath,− Parking,,latrobe-valley-vicwangaratta-vic,-37.8004,144.9684
,,$470 per week,"2/27 Tangerine Street,",GILLIESTON HEIGHTS NSW 2321,2 Beds,1 Bath,1 Parking,,latrobe-valley-vicwangaratta-vic,-32.7719228,151.5286538
,,$625 per week,"23/14 Le Geyt Street,",WINDSOR QLD 4030,2 Beds,2 Baths,1 Parking,,latrobe-valley-vicwangaratta-vic,-27.4359247,153.0360481
,,$700 Weekly,"74a Middle Boambee Road,",BOAMBEE NSW 2450,3 Beds,1 Bath,1 Parking,,latrobe-valley-vicwangaratta-vic,-30.3308686,153.0575873
,,$600 per week,"20 Lady Nelson Place,",YAMBA NSW 2464,3 Beds,2 Baths,4 Parking,,latrobe-valley-vicwangaratta-vic,-29.4274286,153.3294166
,,$560.00,"2 Bourke Street,",ESSENDON WEST VIC 3040,3 Beds,1 Bath,2 Parking,,latrobe-valley-vicwangaratta-vic,-37.7544031,144.886333
,,$650 pw,"37 Scenic Drive,",GILLIESTON HEIGHTS NSW 2321,4 Beds,2 Baths,2 Parking,,latrobe-valley-vicwangaratta-vic,-32.7580488,151.536213
,,$725 per week,"3/462 Como Parade West,",MORDIALLOC VIC 3195,2 Beds,2 Baths,1 Parking,,latrobe-valley-vicwangaratta-vic,-37.9973332,145.0807967
,,$500,"8 Boronia Crescent,",TRARALGON VIC 3844,3 Beds,2 Baths,2 Parking,,latrobe-valley-vicwangaratta-vic,-38.2066603,146.5185162
,,$525,"10 Helen Terrace,",VALLEY VIEW SA 5093,3 Beds,1 Bath,2 Parking,,latrobe-valley-vicwangaratta-vic,-34.8392042,138.6636823
,,$435.00 Per Week,"2 Black Street,",MUSWELLBROOK NSW 2333,3 Beds,2 Baths,1 Parking,436m²,latrobe-valley-vicwangaratta-vic,-32.2871733,150.9100855
,,$500 Per Week,"3/15 Ruskin Street,",BERESFIELD NSW 2322,2 Beds,1 Bath,1 Parking,,latrobe-valley-vicwangaratta-vic,-32.8029742,151.657096
,,$360PW / $1564PCM,"11/44 Fletcher Street,",ESSENDON VIC 3040,1 Bed,1 Bath,1 Parking,,latrobe-valley-vicwangaratta-vic,-37.7553023,144.9207204
,,$720,"35 Friarbird Ridge,",ABERGLASSLYN NSW 2320,4 Beds,2 Baths,3 Parking,,latrobe-valley-vicwangaratta-vic,-32.6944051,151.5367014
,,$600 pw,"12 Molucca Close,",ASHTONFIELD NSW 2323,3 Beds,1 Bath,2 Parking,,latrobe-valley-vicwangaratta-vic,-32.7675462,151.5987032
,,$705 per week,"21 Gollop Crescent,",REDWOOD PARK SA 5097,4 Beds,2 Baths,1 Parking,,latrobe-valley-vicwangaratta-vic,-34.8147978,138.7046174
,,$750,"190 Boomerang Drive,",BLUEYS BEACH NSW 2428,4 Beds,2 Baths,2 Parking,,latrobe-valley-vicwangaratta-vic,-32.3480555,152.5360083
,,$420 per week,"28 Cleary Street,",GATTON QLD 4343,3 Beds,1 Bath,2 Parking,729m²,latrobe-valley-vicwangaratta-vic,-27.5680001,152.2745101
,,$750 per week,"29 Lapwing Street,",ABERGLASSLYN NSW 2320,4 Beds,2 Baths,2 Parking,646m²,latrobe-valley-vicwangaratta-vic,-32.6934593,151.546537
,,$1100 per week,"6 Grey Street,",GLENBROOK NSW 2773,4 Beds,3 Baths,2 Parking,,latrobe-valley-vicwangaratta-vic,-33.7701323,150.625044
,,$680 pw Furnished,"004/8 Kyabra Street,",NEWSTEAD QLD 4006,1 Bed,1 Bath,1 Parking,76m²,latrobe-valley-vicwangaratta-vic,47.35156,8.10669
,,$450 per week,"50 Allan Street,",GATTON QLD 4343,3 Beds,1 Bath,1 Parking,764m²,latrobe-valley-vicwangaratta-vic,-27.5451307,152.283187
,,$500 per week,"1/108 Davey Road,",GATTON QLD 4343,3 Beds,1 Bath,1 Parking,,latrobe-valley-vicwangaratta-vic,-27.5709414,152.2791819
,,$400 p/w including water and gardening,"5/158 Augusta Road,",LENAH VALLEY TAS 7008,1 Bed,1 Bath,− Parking,,latrobe-valley-vicwangaratta-vic,-42.8631464,147.2907599
,,$450,"42A Rodeo Drive,",GREEN VALLEY NSW 2168,2 Beds,1 Bath,− Parking,,latrobe-valley-vicwangaratta-vic,-33.8982944,150.8579025
,,$510 pw,"23 Albert Terrace,",PORT PIRIE SA 5540,3 Beds,2 Baths,3 Parking,603m²,latrobe-valley-vicwangaratta-vic,-33.1882639,138.0159224
,,$880,"42 Rodeo Drive,",GREEN VALLEY NSW 2168,4 Beds,2 Baths,2 Parking,,latrobe-valley-vicwangaratta-vic,-33.8982944,150.8579025
,,"$1,250 PER WEEK","55 Perry Street,",DUNDAS VALLEY NSW 2117,4 Beds,3 Baths,2 Parking,,latrobe-valley-vicwangaratta-vic,-33.792371,151.058556
,,$450 pw,"4/115 Newcastle Street,",EAST MAITLAND NSW 2323,3 Beds,1 Bath,1 Parking,,latrobe-valley-vicwangaratta-vic,-32.7537856,151.5877037
,,UNDER APPLICATION,"1BRM+CAR/35 Campbell Street,",BOWEN HILLS QLD 4006,1 Bed,1 Bath,1 Parking,,latrobe-valley-vicwangaratta-vic,47.35156,8.10669
,,$400PW / $1738PCM,"3/53 Flemington Street,",TRAVANCORE VIC 3032,1 Bed,1 Bath,1 Parking,,latrobe-valley-vicwangaratta-vic,-37.7814333,144.9329929
,,$900,"9 Vernon Street,",STRATHMORE VIC 3041,4 Beds,4 Baths,2 Parking,,latrobe-valley-vicwangaratta-vic,-37.7323128,144.9216962
,,$520,"3/220 South Valley Road,",HIGHTON VIC 3216,4 Beds,2 Baths,4 Parking,,latrobe-valley-vicwangaratta-vic,-38.1810122,144.3168363
,,$700.00,"505/300 Swanston Street,",MELBOURNE VIC 3000,2 Beds,1 Bath,1 Parking,,latrobe-valley-vicwangaratta-vic,-37.8065731,144.9628193
,,$395 p/w each including yard maintenance,"304A Mowbray River Road,",MOWBRAY QLD 4877,1 Bed,1 Bath,1 Parking,"40,350m²",latrobe-valley-vicwangaratta-vic,-16.5492232,145.4724547
,,$720 per week,"78 Arthur Street,",FORTITUDE VALLEY QLD 4006,2 Beds,2 Baths,1 Parking,,latrobe-valley-vicwangaratta-vic,-27.4605268,153.0383566
,,$670 per week,"30 Healey Drive,",EPPING VIC 3076,5 Beds,2 Baths,8 Parking,500m²,latrobe-valley-vicwangaratta-vic,-37.6360961,145.0382555
,,$670 per Week,"24 Willan Drive,",CARTWRIGHT NSW 2168,4 Beds,2 Baths,2 Parking,,latrobe-valley-vicwangaratta-vic,-33.9257385,150.8951802
,,$950 Per Week,"7/398 Elgar Road,",BOX HILL VIC 3128,4 Beds,4 Baths,1 Parking,,latrobe-valley-vicwangaratta-vic,-37.8177032,145.1149333
,,$730,"307 Lord Street,",BEECHBORO WA 6063,3 Beds,1 Bath,1 Parking,891m²,latrobe-valley-vicwangaratta-vic,-31.8663963,115.9547338
,,$580 p/week,"30/6A Valley Road,",HALLS HEAD WA 6210,3 Beds,2 Baths,1 Parking,,latrobe-valley-vicwangaratta-vic,-32.5245727,115.7004219
,,$680 pw,"1 Gaara Close,",MACKSVILLE NSW 2447,4 Beds,2 Baths,2 Parking,,latrobe-valley-vicwangaratta-vic,-30.7078,152.92029
,,$600,"204/150 Great Eastern Highway,",ASCOT WA 6104,1 Bed,1 Bath,1 Parking,,latrobe-valley-vicwangaratta-vic,-31.9326052,115.9407868
,,$550 pw,"4 Attunga Street,",SUN VALLEY QLD 4680,3 Beds,2 Baths,3 Parking,,latrobe-valley-vicwangaratta-vic,-23.8736231,151.2565496
,,"$750 P/W | $3,259.00 PCM","52 Roberts Road,",AIRPORT WEST VIC 3042,4 Beds,3 Baths,1 Parking,,latrobe-valley-vicwangaratta-vic,-37.7262244,144.8813592
,,$700 per week Fully Furnished + MPR,"349/1000 Ann Street,",FORTITUDE VALLEY QLD 4006,1 Bed,1 Bath,1 Parking,,latrobe-valley-vicwangaratta-vic,-27.4517165,153.0408796
,,$400 Per Week,"22 Langford Street,",MORWELL VIC 3840,3 Beds,2 Baths,1 Parking,750m²,latrobe-valley-vicwangaratta-vic,-38.2372635,146.3863894
,,$680 Per Week Furnished,"3/1 Latona Avenue,",CALOUNDRA QLD 4551,2 Beds,2 Baths,1 Parking,,latrobe-valley-vicwangaratta-vic,-26.8066629,153.1336737
,,$445,"2/9 Aberdeen Street,",ABERFELDIE VIC 3040,2 Beds,1 Bath,2 Parking,,latrobe-valley-vicwangaratta-vic,-37.7561989,144.9006573
,,$650 Per Week,"7/2-8 Palmerston Street,",ST JAMES WA 6102,3 Beds,1 Bath,1 Parking,,latrobe-valley-vicwangaratta-vic,1.06911,109.66393
,,$620.00,"101/19 Moore St,",MOONEE PONDS VIC 3039,2 Beds,2 Baths,1 Parking,,latrobe-valley-vicwangaratta-vic,-37.7685092,144.9200385
,,$550,"30 Curtin Street,",EAST MAITLAND NSW 2323,3 Beds,1 Bath,1 Parking,,latrobe-valley-vicwangaratta-vic,-32.7586474,151.5978009
,,$600.00 Per Week,"30 Weemala Place,",MUSWELLBROOK NSW 2333,4 Beds,2 Baths,2 Parking,837m²,latrobe-valley-vicwangaratta-vic,-32.2851369,150.9052058
,,$300,"59/62 Seaview Avenue,",WIRRINA COVE SA 5204,2 Beds,2 Baths,1 Parking,,latrobe-valley-vicwangaratta-vic,-35.5036914,138.247924
,,$600 Per Week,"12 Melaleuca Drive,",YAMBA NSW 2464,3 Beds,2 Baths,2 Parking,,latrobe-valley-vicwangaratta-vic,-29.4220093,153.3276023
,,$550,"8 Morven Street,",MACLEAN NSW 2463,4 Beds,2 Baths,1 Parking,,latrobe-valley-vicwangaratta-vic,-29.4549899,153.1987842
,,$280 per week - Apply Before Viewing,"28A Park Avenue,",NURIOOTPA SA 5355,2 Beds,1 Bath,1 Parking,,latrobe-valley-vicwangaratta-vic,-34.4698807,138.9990044
,,$950.00,"19A Vaynor Street,",NIDDRIE VIC 3042,4 Beds,3 Baths,1 Parking,,latrobe-valley-vicwangaratta-vic,-37.7448572,144.8879266
,,$570 PW / AVAIL. 2.12.24,"79A Riverslea Boulevard,",TRARALGON VIC 3844,4 Beds,2 Baths,2 Parking,,latrobe-valley-vicwangaratta-vic,-38.179134,146.512724
,,$440 wk,"251 Mathieson Street,",BELLBIRD NSW 2325,2 Beds,1 Bath,− Parking,,latrobe-valley-vicwangaratta-vic,-32.8528395,151.32772
,,$380 Per Week,"7 Townsend Street,",CHURCHILL VIC 3842,3 Beds,1 Bath,− Parking,,latrobe-valley-vicwangaratta-vic,-38.3113044,146.4112227
,,$450 pw,"1/39B Rutherford Road,",MUSWELLBROOK NSW 2333,3 Beds,2 Baths,1 Parking,,latrobe-valley-vicwangaratta-vic,-32.2824421,150.8952584
,,$700 weekly,"3 Timor Cl,",BURWOOD VIC 3125,3 Beds,2 Baths,2 Parking,,latrobe-valley-vicwangaratta-vic,-37.843169,145.1065259
,,$850.00,"104/8 Sydenham Street,",MOONEE PONDS VIC 3039,2 Beds,2 Baths,1 Parking,,latrobe-valley-vicwangaratta-vic,-37.7656567,144.917755
,,$535.00,"4/57 Holmes Road,",MOONEE PONDS VIC 3039,2 Beds,1 Bath,1 Parking,,latrobe-valley-vicwangaratta-vic,-37.7664849,144.9186215
,,$780 per week,"5/48 Oxley Rd,",HAWTHORN VIC 3122,3 Beds,2 Baths,2 Parking,,latrobe-valley-vicwangaratta-vic,-37.824108,145.035345
,,SUPERB & CONVENIENT LOCATION,"4 Roedean Street,",BENNETT SPRINGS WA 6063,3 Beds,2 Baths,2 Parking,,latrobe-valley-vicwangaratta-vic,-31.8548609,115.954348
,,$550.00,"210/8 Burrowes Street,",ASCOT VALE VIC 3032,1 Bed,1 Bath,1 Parking,,latrobe-valley-vicwangaratta-vic,-37.7787644,144.9140331
,,$300,"2/7 Wallace Ave,",LENAH VALLEY TAS 7008,1 Bed,1 Bath,1 Parking,,latrobe-valley-vicwangaratta-vic,-42.8629884,147.2781518
,,$380,"22a Collett Circuit,",APPIN NSW 2560,1 Bed,1 Bath,− Parking,,latrobe-valley-vicwangaratta-vic,-34.1858297,150.7905822
,,$675.00,"5 Streldon Avenue,",STRATHMORE VIC 3041,4 Beds,2 Baths,2 Parking,,latrobe-valley-vicwangaratta-vic,-37.723881,144.9104064
,,$900 per week,"6 Lerra Road,",WINDELLA NSW 2320,5 Beds,2 Baths,6 Parking,"5,721m²",latrobe-valley-vicwangaratta-vic,-32.69338,151.478783
,,$450,"16 First Street,",DUBLIN SA 5501,2 Beds,1 Bath,2 Parking,,latrobe-valley-vicwangaratta-vic,-34.4533058,138.353254
,,$625.00,"3/28 Sandown Road,",ASCOT VALE VIC 3032,2 Beds,1 Bath,1 Parking,,latrobe-valley-vicwangaratta-vic,-37.783125,144.9195038
,,$355 per week,"239/386 Burwood Highway,",BURWOOD VIC 3125,1 Bed,1 Bath,− Parking,,latrobe-valley-vicwangaratta-vic,-37.8498,145.119
,,$650 pw,"23 Wanaruah Circuit,",MUSWELLBROOK NSW 2333,3 Beds,2 Baths,2 Parking,552m²,latrobe-valley-vicwangaratta-vic,-32.2901619,150.9106978
,,$480 weekly,"1 Tennant St,",BELLBIRD NSW 2325,3 Beds,1 Bath,− Parking,,latrobe-valley-vicwangaratta-vic,-32.8564154,151.3139689
