Agent Name,Agent Company,Price,Address Line 1,Address Line 2,Bedrooms,Bathrooms,Parking,Floor Space,Region,latitude,longitude
,,$470,"1709/6 Leicester Street,",CARLTON VIC 3053,,,,,colac-vic,-37.802198,144.9607524
,,"$1,100 Per Week","20 Koonawarra St,",CLAYTON VIC 3168,5 Beds,3 Baths,2 Parking,,colac-vic,-37.9117269,145.1244965
,,$400.00 Per Week,"4 Springbank Way,",BROOKFIELD VIC 3338,4 Beds,2 Baths,2 Parking,,colac-vic,-37.7052143,144.5553866
,,"$1,670","29 Drummond street,",CARLTON VIC 3053,7 Beds,3 Baths,2 Parking,290m²,colac-vic,-37.8062068,144.9671839
,,$540,"19 Woolshed Drive,",TRUGANINA VIC 3029,4 Beds,2 Baths,2 Parking,,colac-vic,-37.8205497,144.715242
,,$600 per week,"705/301 King St,",MELBOURNE VIC 3000,1 Bed,1 Bath,− Parking,,colac-vic,-37.8124195,144.95398
,,$630 Per Week,"1/48 Aqueduct Road,",LANGWARRIN VIC 3910,3 Beds,2 Baths,2 Parking,,colac-vic,-38.1598954,145.2034778
,,$600 Per Week,"4 Grosset Way,",POINT COOK VIC 3030,4 Beds,3 Baths,2 Parking,,colac-vic,-37.9168714,144.7853747
,,$360 weekly,"125b Robinson Rd,",BARONGAROOK VIC 3249,2 Beds,1 Bath,2 Parking,,colac-vic,-38.41667,143.6
,,670 per week,"306/3 Young Street,",BOX HILL VIC 3128,2 Beds,2 Baths,1 Parking,,colac-vic,-37.8171987,145.1163199
,,$80,"7P5/70 Southbank Boulevard,",SOUTHBANK VIC 3006,1 Bed,1 Bath,1 Parking,,colac-vic,-37.8228,144.9643
,,$580 per week *Partially Furnished*,"802/15 Doepel Way,",DOCKLANDS VIC 3008,1 Bed,1 Bath,− Parking,,colac-vic,-37.8141958,144.9397552
,,$850 Per Week,"44 Kalbian Drive,",CLYDE NORTH VIC 3978,5 Beds,3 Baths,2 Parking,,colac-vic,-38.1107101,145.3328766
,,$200 per week,"1/8 Dodgshun Street,",HOPETOUN VIC 3396,1 Bed,1 Bath,− Parking,,colac-vic,-35.7329759,142.3684652
,,$170 Per Week Bills Included,"6/13 Hewat Drive,",HIGHTON VIC 3216,1 Bed,1 Bath,1 Parking,,colac-vic,-38.1978881,144.308601
,,$550,"2 YAMUNA STREET,",TRUGANINA VIC 3029,4 Beds,2 Baths,1 Parking,,colac-vic,-37.7707982,144.6891122
,,$520,"22 Huntingfield Street,",THORNHILL PARK VIC 3335,4 Beds,2 Baths,1 Parking,,colac-vic,46.4194,14.6936
,,$550,"38 Sadie Avenue,",THORNHILL PARK VIC 3335,4 Beds,2 Baths,1 Parking,,colac-vic,-37.7138206,144.6303421
,,$650,"19 Maroa Street,",TARNEIT VIC 3029,4 Beds,3 Baths,2 Parking,,colac-vic,-37.8630941,144.6495788
,,$50 per week,"Carpark914/33 Blackwood Street,",NORTH MELBOURNE VIC 3051,− 0 Beds,− 0 Baths,1 Parking,,colac-vic,-37.8029,144.9482
,,$300 per week,"184 Dorset Road,",BORONIA VIC 3155,1 Bed,1 Bath,− Parking,,colac-vic,-37.8621273,145.2855526
,,$60,"Carpark3605/639 Lonsdale Street,",MELBOURNE VIC 3000,− 0 Beds,− 0 Baths,1 Parking,,colac-vic,-37.814,144.9633
,,$69 per week,"Carpark224/23 Blackwood Street,",NORTH MELBOURNE VIC 3051,− 0 Beds,− 0 Baths,1 Parking,,colac-vic,-37.8029,144.9482
,,$60 per week,"Carpark613/33 Blackwood Street,",NORTH MELBOURNE VIC 3051,− 0 Beds,− 0 Baths,1 Parking,,colac-vic,-37.8029,144.9482
,,$50 per week,"Carpark450/401 Docklands Drive,",DOCKLANDS VIC 3008,− 0 Beds,− 0 Baths,1 Parking,,colac-vic,-37.8149,144.9505
,,$60 per week,"Carpark2810/81 A'Beckett Street,",MELBOURNE VIC 3000,− 0 Beds,− 0 Baths,1 Parking,,colac-vic,-37.814,144.9633
,,$70 per week,"Carpark402/135 A'Beckett Street,",MELBOURNE VIC 3000,− 0 Beds,− 0 Baths,1 Parking,,colac-vic,-37.814,144.9633
,,$780,"2B2B/259 Normanby Road,",SOUTHBANK VIC 3006,2 Beds,2 Baths,1 Parking,,colac-vic,-37.8228,144.9643
,,$550,"7 REEVES STREET,",POINT COOK VIC 3030,4 Beds,3 Baths,2 Parking,,colac-vic,-37.8832836,144.7119436
,,LEASED,"253-273 Normanby Road,",SOUTH MELBOURNE VIC 3205,1 Bed,1 Bath,− Parking,,colac-vic,-37.8335,144.9571
,,$550,"1B1B/803 Dandenong Road,",MALVERN EAST VIC 3145,1 Bed,1 Bath,1 Parking,,colac-vic,-37.874,145.0425
,,$700,"2B2B/803 Dandenong Road,",MALVERN EAST VIC 3145,2 Beds,2 Baths,1 Parking,,colac-vic,-37.874,145.0425
Daniel Hamilton,McGrath,$525 pw,"5/95 Osborne Street,",SOUTH YARRA VIC 3141,1 Bed,1 Bath,1 Parking,,hamilton-vic,-37.8395592,144.9915769
Daniel Hamilton,McGrath,$565 pw,"202/92 Kinkora Road,",HAWTHORN VIC 3122,1 Bed,1 Bath,1 Parking,,hamilton-vic,-37.8166248,145.0316792
Daniel Hamilton,McGrath,Contact Agent,"5/23-25 Raleigh Street,",MALVERN VIC 3144,2 Beds,1 Bath,1 Parking,,hamilton-vic,-37.8512,145.0317
Shahaf Pat,Gefen Group,$1450 per week,"2, 18-20/2, 18-20 Hamilton St,",ROSE BAY NSW 2029,2 Beds,2 Baths,1 Parking,,hamilton-vic,-33.86877,151.2706
Daniel Hamilton,McGrath,$450 pw,"1306/52 Park Street,",SOUTH MELBOURNE VIC 3205,1 Bed,1 Bath,− Parking,,hamilton-vic,-37.8335,144.9571
HouseSmart Property Management Department,HouseSmart Real Estate Pty Ltd,$550 per week,"4K/45 King George Street,",VICTORIA PARK WA 6100,2 Beds,1 Bath,1 Parking,,hamilton-vic,-31.9791219,115.8891997
Daniel Hamilton,McGrath,$425 pw,"3/7 Adam Street,",BURNLEY VIC 3121,1 Bed,1 Bath,1 Parking,,hamilton-vic,-37.8289897,145.0078532
Certainty  Property Vic,Certainty Property,$270,"11 McCulloch Drive,",MELTON SOUTH VIC 3338,1 Bed,1 Bath,− Parking,,hamilton-vic,-37.7077,144.5749
Daniel Hamilton,McGrath,$420 pw,"15/1-15 Beddison Road,",CRAIGIEBURN VIC 3064,2 Beds,1 Bath,1 Parking,,hamilton-vic,-37.5588,144.9124
Kim Te,Motion Property,$610 Per Week,"801/5 Joseph Road,",FOOTSCRAY VIC 3011,2 Beds,2 Baths,1 Parking,,hamilton-vic,-37.7995452,144.909498
Daniel Hamilton,McGrath,$435 pw,"2/158 Williams Road,",PRAHRAN VIC 3181,1 Bed,1 Bath,1 Parking,,hamilton-vic,-37.8494374,145.0029784
Branden Charge,Belle Property Hunter Region,$690 per week,"14 McGann Drive,",NORTH ROTHBURY NSW 2335,4 Beds,2 Baths,2 Parking,431m²,hamilton-vic,46.58311,6.88295
Branden Charge,Belle Property Hunter Region,$420 per week,"35/8 Steam Street,",MAITLAND NSW 2320,1 Bed,1 Bath,1 Parking,,hamilton-vic,-32.7359976,151.5480432
Hayley Dare,MOVABLE,$520 Per Week,"106/11 Fern Street,",ISLINGTON NSW 2296,1 Bed,1 Bath,1 Parking,,hamilton-vic,-32.9174131,151.7481527
Daniel Hamilton,McGrath,$440 pw,"9/53 Batman Street,",WEST MELBOURNE VIC 3003,1 Bed,1 Bath,− Parking,,hamilton-vic,-37.8111334,144.9503315
Danielle Ryan,The Core Advisory Team VIC,$750pw,"13/299 Dandenong Road,",PRAHRAN VIC 3181,2 Beds,1 Bath,1 Parking,,hamilton-vic,-37.853,144.9929
Certainty  Property Vic,Certainty Property,$200,"2 Caspian Court,",NEWBOROUGH VIC 3825,1 Bed,1 Bath,− Parking,,hamilton-vic,-38.1671585,146.2940256
Daniel Hamilton,McGrath,$525 pw,"266/183 City Road,",SOUTHBANK VIC 3006,1 Bed,1 Bath,− Parking,,hamilton-vic,-37.8233582,144.9629446
Daniel Hamilton,McGrath,$550 pw Furnished,"1210/8 Marmion Place,",DOCKLANDS VIC 3008,1 Bed,1 Bath,1 Parking,,hamilton-vic,-37.8135357,144.9426598
Daniel Hamilton,McGrath,$325 pw Furnished,"28/38 Charnwood Road,",ST KILDA VIC 3182,1 Bed,1 Bath,1 Parking,,hamilton-vic,-37.8586311,144.9851953
Daniel Hamilton,McGrath,$515 pw,"321/20 Shamrock Street,",ABBOTSFORD VIC 3067,2 Beds,1 Bath,− Parking,,hamilton-vic,-37.8101769,145.0072603
Daniel Hamilton,McGrath,$560 pw,"56/416 St Kilda Road,",MELBOURNE VIC 3004,1 Bed,1 Bath,− Parking,,hamilton-vic,-37.8199768,144.9686623
Daniel Hamilton,McGrath,$625 pw,"1/16 Fawcett Street,",SUNSHINE NORTH VIC 3020,3 Beds,2 Baths,2 Parking,213m²,hamilton-vic,-37.7704976,144.837458
Certainty  Property Vic,Certainty Property,$450,"114 Anniversary Avenue,",WYNDHAM VALE VIC 3024,4 Beds,2 Baths,2 Parking,,hamilton-vic,-37.8515984,144.5943387
Certainty  Property Vic,Certainty Property,$275,"16 Astral Walk,",WOLLERT VIC 3750,1 Bed,1 Bath,− Parking,,hamilton-vic,-37.5833,145.0333
Matthew Karatau,Signum Property Agents,"$2,200 per week","5 Hooker Street,",WINDSOR QLD 4030,6 Beds,5 Baths,4 Parking,,hamilton-vic,-27.4326283,153.0303726
Alana Rossi,AUMR Property Group - Ascot,$1425 per week,"19 Sparkes Avenue,",HAMILTON QLD 4007,4 Beds,2 Baths,2 Parking,,hamilton-vic,-27.4349189,153.0561374
Georgia Hauser,Belle Property Ascot,$700.00 pw,"Level 6, 50602/37B Harbour Road,",HAMILTON QLD 4007,2 Beds,1 Bath,1 Parking,,hamilton-vic,47.32178,8.05281
Lisa Barraclough,Stean Nicholls Real Estate,$590 per week,"303/425 David Street,",ALBURY NSW 2640,2 Beds,2 Baths,1 Parking,,hamilton-vic,-36.0792089,146.9211307
Chloe Hamilton,Belle Property Hunter Region,$495 per week,"1/22 Glen Ayr Avenue,",CLIFTLEIGH NSW 2321,2 Beds,1 Bath,2 Parking,,hamilton-vic,-32.7935941,151.5135401
Daniel Hamilton,McGrath,$440 pw,"11/63 Edgar Street North,",GLEN IRIS VIC 3146,1 Bed,1 Bath,1 Parking,,hamilton-vic,-37.851123,145.0461183
Daniel Hamilton,McGrath,$675 pw,"7 Rothsay Avenue,",BURWOOD VIC 3125,3 Beds,1 Bath,3 Parking,,hamilton-vic,-37.8440154,145.1210327
Daniel Hamilton,McGrath,$410 pw,"5/87a Clyde Street,",THORNBURY VIC 3071,1 Bed,1 Bath,1 Parking,,hamilton-vic,-37.761661,145.0126535
Certainty  Property Vic,Certainty Property,$240,"6 Songlark Street,",MELTON SOUTH VIC 3338,1 Bed,1 Bath,− Parking,,hamilton-vic,-37.718538,144.5789886
Daniel Hamilton,McGrath,$530 pw,"201/11 Hoddle Street,",COLLINGWOOD VIC 3066,1 Bed,1 Bath,1 Parking,,hamilton-vic,-37.7957431,144.9935476
Daniel Hamilton,McGrath,$780 pw,"1002/582 St Kilda Road,",MELBOURNE VIC 3004,2 Beds,2 Baths,1 Parking,,hamilton-vic,-37.814,144.9633
Kim Te,Motion Property,$590 per week,"1002/1 Joseph Road,",FOOTSCRAY VIC 3011,2 Beds,2 Baths,1 Parking,,hamilton-vic,-37.7995452,144.909498
Daniel Hamilton,McGrath,$490 pw,"4/68 Westbury Street,",ST KILDA EAST VIC 3183,2 Beds,1 Bath,− Parking,,hamilton-vic,-37.861953,144.9967151
Daniel Hamilton,McGrath,$350 pw,"10/12 Rosedale Avenue,",GLEN HUNTLY VIC 3163,1 Bed,1 Bath,1 Parking,,hamilton-vic,-37.890662,145.0430596
Daniel Hamilton,McGrath,$510 pw,"11/31-31A George Street,",FITZROY VIC 3065,1 Bed,1 Bath,1 Parking,,hamilton-vic,-37.7984,144.9783
Evelyne Surja,Kay & Burton Stonnington,$1695 Per Week,"2 Rathmines Street,",TOORAK VIC 3142,3 Beds,2 Baths,2 Parking,,hamilton-vic,-37.8387209,145.0058412
Michelle Retschlag,Living Here Cush Partners,$695 per week,"7 Carbeen Street,",BULIMBA QLD 4171,3 Beds,1 Bath,2 Parking,405m²,hamilton-vic,-27.4473599,153.0664987
Certainty  Property Vic,Certainty Property,$250,"17 Oakhill Terrace,",CHURCHILL VIC 3842,1 Bed,1 Bath,1 Parking,,hamilton-vic,-38.3078,146.4137
Daniel Hamilton,McGrath,$975 pw,"20 Patrick Close,",GREENSBOROUGH VIC 3088,5 Beds,3 Baths,2 Parking,,hamilton-vic,-37.683919,145.1309412
Daniel Hamilton,McGrath,$750 pw,"121 Herbert Street,",NORTHCOTE VIC 3070,3 Beds,2 Baths,1 Parking,,hamilton-vic,-37.7669173,144.9966587
Daniel Hamilton,McGrath,$285 pw,"4/631 Punt Road,",SOUTH YARRA VIC 3141,− 0 Beds,1 Bath,− Parking,,hamilton-vic,-37.8300859,144.9878467
Karen Tannock,MOVABLE,$720 Per Week,"111 Denison Street,",HAMILTON NSW 2303,2 Beds,1 Bath,1 Parking,,hamilton-vic,-32.9258735,151.7508753
Amanda Butler,Butler+Co Estate Agents,"$1,100 pw","Level 4, C/11 Hillside Crescent,",HAMILTON QLD 4007,2 Beds,1 Bath,1 Parking,,hamilton-vic,-27.4388538,153.0532631
GC City,Ray White Surfers Paradise,$720,"406/9 Hamilton,",SURFERS PARADISE QLD 4217,1 Bed,1 Bath,1 Parking,,hamilton-vic,-28.0065768,153.4280205
Laura Hamilton,,$680.00 per week,"10 Atkins Crescent,",HOBARTVILLE NSW 2753,3 Beds,1 Bath,2 Parking,,hamilton-vic,-33.6045202,150.7408841
Casey Blaine,,FULLY FURNISHED - $420 PER WEEK,"5/8 Dale St,",KENNINGTON VIC 3550,1 Bed,1 Bath,1 Parking,,hamilton-vic,-36.7612758,144.3023453
,,$580,"21 Manchado Street,",TARNEIT VIC 3029,4 Beds,2 Baths,2 Parking,,hamilton-vic,-37.8826,144.7003
,,Deposit taken,"1 Hamilton Crescent,",RYDE NSW 2112,1 Bed,1 Bath,1 Parking,,hamilton-vic,-33.8196516,151.095366
,,$700 Per Week,"102 Wattle Street,",BENDIGO VIC 3550,3 Beds,3 Baths,2 Parking,,hamilton-vic,-36.7642622,144.2745473
,,$450 pw,"10/54 Rockley Road,",SOUTH YARRA VIC 3141,1 Bed,1 Bath,1 Parking,,hamilton-vic,-37.8351642,145.0003597
,,$700 pw,"501/109 York Street,",SOUTH MELBOURNE VIC 3205,2 Beds,2 Baths,1 Parking,,hamilton-vic,-37.8335,144.9571
,,$450 pw,"9/403 Toorak Road,",SOUTH YARRA VIC 3141,1 Bed,1 Bath,1 Parking,,hamilton-vic,-37.8386476,144.9890755
,,$240,"63 Pintail Drive,",MELTON SOUTH VIC 3338,1 Bed,1 Bath,− Parking,,hamilton-vic,-37.719208,144.5789327
,,$250,"8 Jacobena Road,",MELTON SOUTH VIC 3338,1 Bed,1 Bath,− Parking,,hamilton-vic,-37.7140748,144.5662005
,,$795 weekly,"24 Trafalgar Street,",MONT ALBERT VIC 3127,4 Beds,2 Baths,2 Parking,,hamilton-vic,-37.8186679,145.1066269
,,$570 per week,"110 Paterson Road,",BOLWARRA NSW 2320,3 Beds,1 Bath,1 Parking,,hamilton-vic,-32.7073157,151.5761053
,,$400 Furnished pw,"27/63 Alexandra Avenue,",SOUTH YARRA VIC 3141,− 0 Beds,1 Bath,− Parking,,hamilton-vic,-37.8284238,144.9849733
,,$730 Parkside living Highspeed unlimited WiFi PetFriendly,"224/109 Manningham St,",PARKVILLE VIC 3052,1 Bed,1 Bath,1 Parking,,hamilton-vic,-37.7877105,144.9423529
,,$665 Parkside living Highspeed unlimited WiFi PetFriendly,"225/109 Manningham St,",PARKVILLE VIC 3052,2 Beds,2 Baths,1 Parking,,hamilton-vic,-37.7877105,144.9423529
,,$750 per week Parkside living Highspeed unlimited WiFi PetFriendly,"403/109 Manningham St,",PARKVILLE VIC 3052,2 Beds,2 Baths,1 Parking,,hamilton-vic,-37.7877105,144.9423529
,,$950 Parkside living Highspeed unlimited WiFi PetFriendly,"607/109 109 Manningham St,",PARKVILLE VIC 3052,2 Beds,2 Baths,1 Parking,,hamilton-vic,-37.7603,144.9502
,,"$1,250 pw","9 Everton Street,",HAMILTON EAST NSW 2303,3 Beds,1 Bath,2 Parking,,hamilton-vic,-32.9272304,151.7540561
,,$610 pw,"1905/8 Downie Street,",MELBOURNE VIC 3000,2 Beds,2 Baths,1 Parking,,hamilton-vic,-37.8199018,144.955577
,,"$1,250 pw","602/454 St Kilda Road,",MELBOURNE VIC 3004,3 Beds,2 Baths,2 Parking,,hamilton-vic,-37.814,144.9633
,,$610 pw,"806/673 Latrobe Street,",DOCKLANDS VIC 3008,2 Beds,2 Baths,1 Parking,,hamilton-vic,-37.8149,144.9505
,,$670 Parkside living Highspeed unlimited WiFi PetFriendly,"121 109 Manningham St,",PARKVILLE VIC 3052,1 Bed,1 Bath,1 Parking,,hamilton-vic,-37.7877105,144.9423529
$595 - $596 per week,,$595 - $596 per week,"33 Currong Street,",REID ACT 2612,2 Beds,1 Bath,1 Parking,,hamilton-vic,-35.2839691,149.1432609
,,$380 per week,"7/19 Mannikan Court,",BAKEWELL NT 0832,2 Beds,1 Bath,2 Parking,,hamilton-vic,-12.5004011,130.9871454
,,$600 pw,"6a Bates Street,",HAMILTON NORTH NSW 2292,2 Beds,1 Bath,2 Parking,,hamilton-vic,-32.9168788,151.7364067
,,$730,"33/37C Harbour Rd HAMILTON,",HAMILTON QLD 4007,2 Beds,2 Baths,1 Parking,,hamilton-vic,-27.4392253,153.0657574
,,$585 per week,"3/80 Racecourse Road,",HAMILTON QLD 4007,2 Beds,2 Baths,1 Parking,,hamilton-vic,-27.4355388,153.0645517
,,"$1,575 PER WEEK","14 Mildara Place,",WEST PENNANT HILLS NSW 2125,4 Beds,3 Baths,3 Parking,,hamilton-vic,-33.741893,151.026187
,,$520 per week,"4/40 Rossiter Parade,",HAMILTON QLD 4007,2 Beds,1 Bath,1 Parking,,hamilton-vic,-27.4378779,153.0628971
,,$750,"27 Capitol Drive,",JINDALEE QLD 4074,4 Beds,2 Baths,2 Parking,766m²,hamilton-vic,-27.5398143,152.9438363
,,$510 per week,"207/6 Leicester Street,",CARLTON VIC 3053,1 Bed,1 Bath,− Parking,,hamilton-vic,-37.802198,144.9607524
,,$450 per week,"Unit 1113/6 Leicester St,",CARLTON VIC 3053,1 Bed,1 Bath,− Parking,,hamilton-vic,-37.8004,144.9684
,,$725 per week,"3/462 Como Parade West,",MORDIALLOC VIC 3195,2 Beds,2 Baths,1 Parking,,hamilton-vic,-37.9973332,145.0807967
,,$700,"C5903/16 Constitution Road,",RYDE NSW 2112,1 Bed,1 Bath,1 Parking,62m²,hamilton-vic,14.2766,46.8693
,,$420 Per Week,"94 Powerscourt Street,",MAFFRA VIC 3860,3 Beds,1 Bath,1 Parking,,hamilton-vic,-37.9535396,146.9874645
,,$700.00,"505/300 Swanston Street,",MELBOURNE VIC 3000,2 Beds,1 Bath,1 Parking,,hamilton-vic,-37.8065731,144.9628193
,,$670 per week,"30 Healey Drive,",EPPING VIC 3076,5 Beds,2 Baths,8 Parking,500m²,hamilton-vic,-37.6360961,145.0382555
,,$950 Per Week,"7/398 Elgar Road,",BOX HILL VIC 3128,4 Beds,4 Baths,1 Parking,,hamilton-vic,-37.8177032,145.1149333
,,$600,"204/150 Great Eastern Highway,",ASCOT WA 6104,1 Bed,1 Bath,1 Parking,,hamilton-vic,-31.9326052,115.9407868
,,$650 Per Week,"7/2-8 Palmerston Street,",ST JAMES WA 6102,3 Beds,1 Bath,1 Parking,,hamilton-vic,1.06911,109.66393
,,$800,"6/1 Hamilton Street,",ALLAWAH NSW 2218,2 Beds,1 Bath,1 Parking,,hamilton-vic,-33.9703958,151.118499
,,$770,"57/37C Harbour Rd HAMILTON,",HAMILTON QLD 4007,1 Bed,1 Bath,1 Parking,,hamilton-vic,-27.4325,153.0639
,,$750 per week,"4/44 Jackson Street,",HAMILTON QLD 4007,2 Beds,2 Baths,1 Parking,,hamilton-vic,-27.4320255,153.0751837
,,$700 weekly,"3 Timor Cl,",BURWOOD VIC 3125,3 Beds,2 Baths,2 Parking,,hamilton-vic,-37.843169,145.1065259
,,$780 per week,"5/48 Oxley Rd,",HAWTHORN VIC 3122,3 Beds,2 Baths,2 Parking,,hamilton-vic,-37.824108,145.035345
,,"$1,100","10 Portland Street,",NEDLANDS WA 6009,3 Beds,2 Baths,2 Parking,,hamilton-vic,-31.9761494,115.8081119
,,$355 per week,"239/386 Burwood Highway,",BURWOOD VIC 3125,1 Bed,1 Bath,− Parking,,hamilton-vic,-37.8498,145.119
,,$390 Per Week,"2/25 Merry Street,",MAFFRA VIC 3860,2 Beds,1 Bath,1 Parking,,hamilton-vic,-37.95572,146.9810303
,,$850 weekly,"2004/103 South Wharf Drive,",DOCKLANDS VIC 3008,2 Beds,2 Baths,1 Parking,,hamilton-vic,-37.8221868,144.9362813
,,$400 weekly,"3/15 Tallis Street,",NORLANE VIC 3214,2 Beds,2 Baths,1 Parking,,hamilton-vic,-38.0924322,144.3646223
,,$500.00,"2/42 Raleigh Road,",MARIBYRNONG VIC 3032,2 Beds,1 Bath,1 Parking,,hamilton-vic,-37.7689479,144.8868552
,,$770,"10612/320 Macarthur Avenue,",HAMILTON QLD 4007,2 Beds,2 Baths,1 Parking,94m²,hamilton-vic,-27.4396843,153.0703555
,,$870,"12/37D Harbour Rd,",HAMILTON QLD 4007,2 Beds,2 Baths,2 Parking,,hamilton-vic,47.32178,8.05281
,,$660 Light n Bright,"ID:21141030/2 Harbour Road,",HAMILTON QLD 4007,2 Beds,1 Bath,1 Parking,,hamilton-vic,47.32178,8.05281
,,$550,"21 Fifth Avenue,",ALTONA NORTH VIC 3025,3 Beds,1 Bath,1 Parking,,hamilton-vic,-37.8332736,144.8510236
,,$620 Huge Apt,"ID:21141025/2 Harbour Road,",HAMILTON QLD 4007,1 Bed,1 Bath,1 Parking,,hamilton-vic,47.32178,8.05281
,,$425 Per Week,"177B Dudley Road,",WHITEBRIDGE NSW 2290,2 Beds,1 Bath,− Parking,,hamilton-vic,-32.9779967,151.7079217
,,$470 per week,"2B Hayward Street,",PENGUIN TAS 7316,2 Beds,2 Baths,2 Parking,,hamilton-vic,-41.1139833,146.0702555
,,$675,"4/92 Nudgee Road,",HAMILTON QLD 4007,2 Beds,2 Baths,1 Parking,,hamilton-vic,-27.4363084,153.0709534
,,$390,"2501/19 Playfield Street,",CHERMSIDE QLD 4032,1 Bed,1 Bath,1 Parking,69m²,hamilton-vic,-27.3843728,153.0343976
,,$800 per week,"3/13 Isted Avenue,",HAMILTON HILL WA 6163,3 Beds,2 Baths,2 Parking,,hamilton-vic,-32.0880998,115.782738
,,$560.00,"805/408 Spencer Street,",WEST MELBOURNE VIC 3003,1 Bed,1 Bath,− Parking,,hamilton-vic,-37.8101,144.95
,,$800,"3/100 Jackson Street,",HAMILTON QLD 4007,3 Beds,2 Baths,1 Parking,,hamilton-vic,-27.4320255,153.0751837
,,$650 wk,"50 Timothy Street,",MACLEAY ISLAND QLD 4184,3 Beds,2 Baths,2 Parking,,hamilton-vic,-27.6184885,153.365841
,,$760 per week,"ID:21140935/1044 Hamilton Road,",MCDOWALL QLD 4053,3 Beds,2 Baths,3 Parking,,hamilton-vic,-27.3797897,152.9899427
,,$900 Per Week,"42 Fowler Street,",HAMILTON SOUTH NSW 2303,4 Beds,3 Baths,1 Parking,,hamilton-vic,-32.9336569,151.737856
,,$430.00,"1406/557-561 Little Lonsdale Street,",MELBOURNE VIC 3000,1 Bed,1 Bath,− Parking,,hamilton-vic,-37.814,144.9633
,,$345 per week,"117/386 Burwood Highway,",BURWOOD VIC 3125,1 Bed,1 Bath,− Parking,,hamilton-vic,-37.8498,145.119
,,$570,"ID:21140878/52 Crosby Road,",ALBION QLD 4010,1 Bed,1 Bath,1 Parking,,hamilton-vic,47.35422,8.04123
,,$590 per week,"32 Golconda Avenue,",FRANKSTON VIC 3199,3 Beds,1 Bath,2 Parking,,hamilton-vic,-38.1411139,145.1493354
,,$380 per week,"6/406 Lower Heidelberg Road,",EAGLEMONT VIC 3084,1 Bed,1 Bath,1 Parking,100m²,hamilton-vic,-37.7658239,145.0670583
,,$700.00,"35/174 Peel Street,",WINDSOR VIC 3181,2 Beds,2 Baths,1 Parking,,hamilton-vic,-37.853,144.9929
,,$590 per week,"8 Tynong Street,",CROYDON VIC 3136,3 Beds,1 Bath,1 Parking,877m²,hamilton-vic,-37.7875726,145.2787375
,,$850 per week,"240 Hamilton Road,",SPEARWOOD WA 6163,3 Beds,2 Baths,2 Parking,,hamilton-vic,-32.1085366,115.7750546
,,$500,"4 Waugh Street,",ROCKBANK VIC 3335,4 Beds,2 Baths,2 Parking,,hamilton-vic,-37.7329611,144.6498316
,,$995,"122A Sussex Street,",EAST VICTORIA PARK WA 6101,4 Beds,2 Baths,2 Parking,,hamilton-vic,-31.9838389,115.9009195
,,$480,"8 Chorley Street,",STRATHTULLOH VIC 3338,4 Beds,2 Baths,1 Parking,,hamilton-vic,-37.7236822,144.596732
,,$510 per week,"7 Waler Street,",AINTREE VIC 3336,3 Beds,2 Baths,2 Parking,,hamilton-vic,-37.72042,144.6689989
,,$660 per week River view fully furnished,"unit 904/8 Hunt Street,",HAMILTON QLD 4007,1 Bed,1 Bath,1 Parking,,hamilton-vic,47.32178,8.05281
,,$710 per week River View,"710/8 Hunt Street,",HAMILTON QLD 4007,2 Beds,2 Baths,1 Parking,,hamilton-vic,-27.4409356,153.0479853
,,$750 per week,"178 Nicholson St,",BRUNSWICK EAST VIC 3057,2 Beds,1 Bath,1 Parking,247m²,hamilton-vic,-37.7654728,144.9805539
,,"$1,300 per week","UNIT 5/7 TOORAK ROAD,",HAMILTON QLD 4007,3 Beds,2 Baths,2 Parking,,hamilton-vic,-27.4397385,153.0508981
,,$680 per week,"10/8 Riversdale Road,",BURSWOOD WA 6100,1 Bed,1 Bath,1 Parking,,hamilton-vic,-31.9563359,115.9000791
,,$750.00 per week,"2/11 South Terrace,",COMO WA 6152,4 Beds,1 Bath,1 Parking,,hamilton-vic,-31.9885137,115.854003
,,$790.00 per week,"11/118 Broome Street,",COTTESLOE WA 6011,2 Beds,1 Bath,1 Parking,,hamilton-vic,-31.9928078,115.7561469
,,$650 per week (unfurnished),"10/197 Clontarf Road,",HAMILTON HILL WA 6163,2 Beds,1 Bath,1 Parking,,hamilton-vic,-32.0754965,115.7670088
,,$450 weekly,"601/150 Dudley St,",WEST MELBOURNE VIC 3003,− 0 Beds,1 Bath,1 Parking,,hamilton-vic,-37.8101,144.95
,,$450 per week,"58 Broadway,",ELWOOD VIC 3184,1 Bed,1 Bath,− Parking,,hamilton-vic,-37.8768281,144.9835959
,,$650 per week,"512/668 Swanston Street,",CARLTON VIC 3053,1 Bed,1 Bath,1 Parking,,hamilton-vic,-37.8004,144.9684
,,REVIEWING APPLICATIONS,"768 Hamilton Road,",CHERMSIDE WEST QLD 4032,3 Beds,1 Bath,2 Parking,600m²,hamilton-vic,-27.3828785,153.0074345
,,$800,"33/24 Hamilton Ave,",SURFERS PARADISE QLD 4217,2 Beds,2 Baths,1 Parking,,hamilton-vic,-28.0065768,153.4280205
,,$650 Per Week,"2/3 Bellion Drive,",HAMILTON HILL WA 6163,2 Beds,1 Bath,1 Parking,,hamilton-vic,-32.0816044,115.7639127
,,$550,"1/4 Hamilton Street,",SOMERTON PARK SA 5044,2 Beds,1 Bath,− Parking,,hamilton-vic,-34.9977818,138.5170431
,,$300 per wk/per room,"Level Room 2/133 Denison Street,",HAMILTON NSW 2303,1 Bed,1 Bath,− Parking,,hamilton-vic,15.7516,44.5746
,,$650 Per Week,"4 Crawley Court,",VIEWBANK VIC 3084,3 Beds,2 Baths,2 Parking,,hamilton-vic,-37.7362938,145.0917212
,,$420 Per Week,"403/131 Beaumont Street,",HAMILTON NSW 2303,− 0 Beds,1 Bath,− Parking,,hamilton-vic,-32.9196735,151.7477945
,,$490 per week,"37 Sunset Boulevard,",JACANA VIC 3047,3 Beds,1 Bath,− Parking,639m²,hamilton-vic,-37.6911121,144.9154098
,,$750,"77 Hemingway Drive,",ROCKBANK VIC 3335,5 Beds,5 Baths,2 Parking,,hamilton-vic,-37.7357449,144.6650069
,,$640 PER WEEK,"2 Wigan Close,",WOLLERT VIC 3750,4 Beds,2 Baths,4 Parking,,hamilton-vic,-37.6169595,145.0240561
,,$330 Per Week,"1/11 Kerr Street,",MAYFIELD NSW 2304,1 Bed,1 Bath,− Parking,,hamilton-vic,-32.8965811,151.7366111
,,$800,"2101/45 Belgrave Street,",BALMORAL QLD 4171,2 Beds,2 Baths,1 Parking,,hamilton-vic,-27.4627208,153.0638067
,,$590 weekly,"107/19 Irving Ave,",BOX HILL VIC 3128,2 Beds,1 Bath,1 Parking,,hamilton-vic,-37.8158711,145.1222744
,,$395 per week,"1/110 Tudor Street,",HAMILTON NSW 2303,1 Bed,1 Bath,− Parking,,hamilton-vic,-32.9246281,151.7503147
,,Under Application - Deposit Taken,"1301/557 Little Lonsdale St,",MELBOURNE VIC 3000,1 Bed,1 Bath,− Parking,,hamilton-vic,-37.8109981,144.9628452
,,$630 Per Week,"1/51 Laycock Street,",KILABEN BAY NSW 2283,3 Beds,1 Bath,2 Parking,,hamilton-vic,-33.0288173,151.6028892
,,$580 weekly,"5/59 Tooronga Rd,",MALVERN EAST VIC 3145,2 Beds,1 Bath,1 Parking,"1,091m²",hamilton-vic,-37.8734046,145.0383518
,,$830,"203/37D Harbour Rd,",HAMILTON QLD 4007,2 Beds,2 Baths,1 Parking,,hamilton-vic,47.32178,8.05281
,,$550 per week,"89 Greta Drive,",HAMILTON VALLEY NSW 2641,4 Beds,2 Baths,2 Parking,,hamilton-vic,-36.0316137,146.9091131
,,$520,"106/501-503 Plenty Road,",PRESTON VIC 3072,2 Beds,2 Baths,1 Parking,,hamilton-vic,-37.75,145.0167
,,$580,"15/163 Hubert Street,",EAST VICTORIA PARK WA 6101,2 Beds,1 Bath,1 Parking,,hamilton-vic,-31.9907764,115.9106969
,,$600 per wk,"ID:3872810/24 Colton Avenue,",LUTWYCHE QLD 4030,2 Beds,2 Baths,1 Parking,,hamilton-vic,47.42798,8.34425
,,$550,"4 Henderson Drive,",TARNEIT VIC 3029,4 Beds,2 Baths,2 Parking,,hamilton-vic,-37.8433637,144.6426152
,,"$580.00 per week $2,520.00 per month",".20 Kosa Avenue,",SUNSHINE WEST VIC 3020,3 Beds,2 Baths,2 Parking,,hamilton-vic,-37.7950931,144.7920516
,,$1100 PER WEEK,"3507/126 Parkside Circuit,",HAMILTON QLD 4007,3 Beds,2 Baths,2 Parking,,hamilton-vic,47.32178,8.05281
,,$580 per week,"4/14 Dodd Street,",HAMILTON HILL WA 6163,1 Bed,1 Bath,1 Parking,,hamilton-vic,-32.0759623,115.7800887
,,$550 per week,"109a Hamilton Road,",FAIRFIELD NSW 2165,2 Beds,1 Bath,1 Parking,,hamilton-vic,-33.8724695,150.9377294
,,$400 Per Week,"1 Main Street,",NEWRY VIC 3859,3 Beds,1 Bath,2 Parking,,hamilton-vic,-37.9283818,146.8893183
,,$800 per week,"70 Cobram Drive,",EYNESBURY VIC 3338,5 Beds,3 Baths,2 Parking,,hamilton-vic,-37.7855923,144.5538346
,,$580 pw,"13/10 Teramby Road,",HAMILTON NSW 2303,2 Beds,1 Bath,1 Parking,,hamilton-vic,-32.9221097,151.7370404
,,$750,"3009/37C Harbour Rd HAMILTON,",HAMILTON QLD 4007,2 Beds,2 Baths,1 Parking,,hamilton-vic,-27.4325,153.0639
,,$465 per week,"1/381 Middleborough Road,",BOX HILL VIC 3128,2 Beds,1 Bath,− Parking,,hamilton-vic,-37.8199145,145.1382926
,,$460,"1610/6 Leicester Street,",CARLTON VIC 3053,1 Bed,1 Bath,− Parking,,hamilton-vic,-37.802198,144.9607524
,,"$1,075 weekly","42 Fairview Rd,",MOUNT WAVERLEY VIC 3149,5 Beds,2 Baths,2 Parking,,hamilton-vic,-37.8667417,145.1164592
,,$580pw /$2520pcm,"20 Bent Street,",BUNDOORA VIC 3083,4 Beds,1 Bath,1 Parking,,hamilton-vic,-37.6979816,145.0597269
,,$975 per week,"506/1 Dank Street West,",PORT MELBOURNE VIC 3207,3 Beds,1 Bath,2 Parking,,hamilton-vic,-37.8329,144.922
,,$650 weekly,"79 Ardmillan Rd,",MOONEE PONDS VIC 3039,3 Beds,1 Bath,2 Parking,,hamilton-vic,-37.7629189,144.9092671
,,Under Application - Deposit Taken,"1302/557 Little Lonsdale St,",MELBOURNE VIC 3000,1 Bed,1 Bath,− Parking,,hamilton-vic,-37.8109981,144.9628452
,,Under Application,"133 Nelson Rd,",BOX HILL NORTH VIC 3129,3 Beds,1 Bath,2 Parking,,hamilton-vic,-37.8125881,145.1202218
,,$650 PW,"11 Bangalay Place,",POINT COOK VIC 3030,4 Beds,2 Baths,2 Parking,572m²,hamilton-vic,-37.9030495,144.747281
,,$450,"3/87 Crescent Road,",HAMILTON QLD 4007,1 Bed,1 Bath,1 Parking,60m²,hamilton-vic,-27.4367043,153.0567603
,,$530 per week,"701/6 Leicester Street,",CARLTON VIC 3053,2 Beds,1 Bath,− Parking,,hamilton-vic,-37.802198,144.9607524
,,$500,"9 Kerala Street,",ROCKBANK VIC 3335,4 Beds,2 Baths,1 Parking,,hamilton-vic,-37.7427695,144.6662207
,,$480 per week,"817 18-28 Albert Street,",FOOTSCRAY VIC 3011,2 Beds,1 Bath,1 Parking,,hamilton-vic,-37.7995,144.8963
,,"$3,500 per week","28 Janelle Way,",OCEAN GROVE VIC 3226,3 Beds,2 Baths,4 Parking,600m²,hamilton-vic,-38.2485008,144.5553815
,,$510,"46 Bluebottle Parade,",ROCKBANK VIC 3335,4 Beds,2 Baths,2 Parking,,hamilton-vic,-37.7444148,144.6467109
,,Deposit Taken!,"7/45 Hamilton Road,",FAIRFIELD NSW 2165,2 Beds,1 Bath,1 Parking,,hamilton-vic,-33.8724695,150.9377294
,,$335 per week,"235/386 Burwood Highway,",BURWOOD VIC 3125,1 Bed,1 Bath,− Parking,,hamilton-vic,-37.8498,145.119
,,$570 per week,"2508/31 A'Beckett St,",MELBOURNE VIC 3000,1 Bed,1 Bath,1 Parking,,hamilton-vic,-37.814,144.9633
,,"$1,200 per week","127 LAWSON STREET,",HAMILTON NSW 2303,4 Beds,2 Baths,2 Parking,,hamilton-vic,-32.9286063,151.7483988
,,"$1,300","39 Wade Street,",WAVELL HEIGHTS QLD 4012,4 Beds,2 Baths,− Parking,461m²,hamilton-vic,-27.3901325,153.0585352
,,"$1,300","37 Wade Street,",WAVELL HEIGHTS QLD 4012,4 Beds,2 Baths,− Parking,461m²,hamilton-vic,-27.388936,153.0581402
,,$680 pw,"261 Beaumont Street,",HAMILTON SOUTH NSW 2303,4 Beds,1 Bath,2 Parking,,hamilton-vic,-32.9337534,151.7449907
,,$650 pw,"42 Hamilton Street,",FAIRY MEADOW NSW 2519,3 Beds,1 Bath,1 Parking,,hamilton-vic,-34.3993697,150.8843208
,,$550,"15 Westbury Ave,",ROCKBANK VIC 3335,5 Beds,2 Baths,2 Parking,512m²,hamilton-vic,-37.7420647,144.6662495
,,$896 per week,"61 Lawson Street,",HAMILTON NSW 2303,4 Beds,2 Baths,− Parking,,hamilton-vic,-32.9286063,151.7483988
,,Under Application - Deposit Taken,"702/845-851 Whitehorse Rd,",BOX HILL VIC 3128,3 Beds,2 Baths,1 Parking,,hamilton-vic,-37.8256,145.1232
,,$750 - Large Warehouse-Style Apartment!,"35/1 Flagstaff Lane,",WEST MELBOURNE VIC 3003,2 Beds,2 Baths,1 Parking,,hamilton-vic,-37.8095186,144.9519321
,,$560 weekly,"1006/545 Station St,",BOX HILL VIC 3128,1 Bed,1 Bath,1 Parking,,hamilton-vic,-37.8256,145.1232
,,$480,"16 Zoe Street,",ROCKBANK VIC 3335,3 Beds,2 Baths,2 Parking,,hamilton-vic,-37.7349313,144.6608428
,,$590 per week,"409/2 Hallenstein Street,",FOOTSCRAY VIC 3011,2 Beds,2 Baths,1 Parking,,hamilton-vic,-37.7998253,144.9080515
,,$510 per week,"1 Blande Court,",LARA VIC 3212,3 Beds,2 Baths,2 Parking,,hamilton-vic,-38.0266872,144.4149844
,,Contact Agent,"44/145 Canterbury Road,",TOORAK VIC 3142,1 Bed,1 Bath,− Parking,,hamilton-vic,-37.8432666,145.0103739
,,$650,"165/37c Harbour Road,",HAMILTON QLD 4007,1 Bed,1 Bath,1 Parking,,hamilton-vic,47.32178,8.05281
,,$625 PER WEEK,"608C/6 Nancarrow Avenue,",RYDE NSW 2112,1 Bed,1 Bath,1 Parking,,hamilton-vic,14.2766,46.8693
,,$900,"152 Hamilton Road,",FAIRFIELD NSW 2165,4 Beds,2 Baths,3 Parking,,hamilton-vic,-33.8724695,150.9377294
,,$300 per week,"37/47 North Terrace,",BURNIE TAS 7320,2 Beds,1 Bath,1 Parking,,hamilton-vic,-41.0481363,145.902223
,,$800.00,"1806/408 Spencer Street,",WEST MELBOURNE VIC 3003,2 Beds,2 Baths,1 Parking,,hamilton-vic,-37.8101,144.95
,,$650 pw,"11 Bowser Street,",HAMILTON NORTH NSW 2292,2 Beds,1 Bath,− Parking,,hamilton-vic,-32.9128672,151.7337233
,,$450,"20 GRAPPENHALL AVENUE,",STRATHTULLOH VIC 3338,4 Beds,2 Baths,2 Parking,,hamilton-vic,-37.7296522,144.5947442
,,$610 per week,"4 Bates Street,",HAMILTON NORTH NSW 2292,2 Beds,1 Bath,1 Parking,,hamilton-vic,-32.9168788,151.7364067
,,$650,"B4101/1 Hamilton Crescent,",RYDE NSW 2112,1 Bed,1 Bath,1 Parking,63m²,hamilton-vic,14.2766,46.8693
,,$580.00 per week,"82 Fern Street,",ISLINGTON NSW 2296,2 Beds,1 Bath,− Parking,200m²,hamilton-vic,-32.9174131,151.7481527
,,$650 weekly,"606/12-14 Nelson Rd,",BOX HILL VIC 3128,2 Beds,2 Baths,1 Parking,,hamilton-vic,-37.8256,145.1232
,,335 per week,"130/386 Burwood Highway,",BURWOOD VIC 3125,1 Bed,1 Bath,− Parking,,hamilton-vic,-37.8498,145.119
,,$800,"205/37c Harbour Road,",HAMILTON QLD 4007,2 Beds,2 Baths,1 Parking,,hamilton-vic,47.32178,8.05281
,,$595 per week,"32 Victoria,",PRESTON VIC 3072,2 Beds,1 Bath,2 Parking,165m²,hamilton-vic,-37.75,145.0167
,,"$1,700","23A Laurie Street,",CARINA HEIGHTS QLD 4152,6 Beds,4 Baths,2 Parking,523m²,hamilton-vic,-27.5038583,153.0969068
,,$630,"7/5 Hamilton Street,",ALLAWAH NSW 2218,2 Beds,2 Baths,1 Parking,,hamilton-vic,-33.9703958,151.118499
,,$550 weekly,"1 Lexton Rd,",BOX HILL NORTH VIC 3129,3 Beds,1 Bath,2 Parking,,hamilton-vic,-37.8121569,145.1364385
,,"Dual Living + Utility Room - $1,000/week","17 Bodian Street,",CARINDALE QLD 4152,3 Beds,3 Baths,2 Parking,638m²,hamilton-vic,-27.4932022,153.1068205
,,$420 per week,"34 Risby Street,",ULVERSTONE TAS 7315,3 Beds,1 Bath,4 Parking,,hamilton-vic,-41.1604952,146.1751343
,,$610,"200/37c Harbour Road,",HAMILTON QLD 4007,1 Bed,1 Bath,1 Parking,,hamilton-vic,47.32178,8.05281
,,Unfinished 950/week,"229 Hamilton Road,",WAVELL HEIGHTS QLD 4012,4 Beds,2 Baths,2 Parking,,hamilton-vic,-27.3877811,153.045257
,,"$1,000 per week River & City Views","4132/37C Harbour Road,",HAMILTON QLD 4007,3 Beds,2 Baths,2 Parking,,hamilton-vic,47.32178,8.05281
,,$395 per week,"17/92 Grey St,",ST KILDA VIC 3182,− 0 Beds,1 Bath,− Parking,30m²,hamilton-vic,-37.864,144.9814916
,,$600 pw,"25 Callanish Street,",TRUGANINA VIC 3029,4 Beds,2 Baths,2 Parking,,hamilton-vic,-37.814374,144.7136435
,,$270 per week,"29/47 North Terrace,",BURNIE TAS 7320,2 Beds,1 Bath,− Parking,,hamilton-vic,-41.0481363,145.902223
,,"$1,200 per week","42/36 Vernon Terrace,",TENERIFFE QLD 4005,3 Beds,3 Baths,2 Parking,,hamilton-vic,-27.4542771,153.0493658
,,$530 weekly,"8 Wattle St,",BOX HILL NORTH VIC 3129,3 Beds,1 Bath,2 Parking,,hamilton-vic,-37.8107889,145.119309
,,"$1,950 per week","112 Harold St,",MIDDLE PARK VIC 3206,4 Beds,3 Baths,2 Parking,,hamilton-vic,-37.8517675,144.9582035
,,"$1,150 weekly","280A Tucker Rd,",ORMOND VIC 3204,4 Beds,3 Baths,2 Parking,,hamilton-vic,-37.9066213,145.053271
,,$525.00,"206 Gatehouse Place,",MARIBYRNONG VIC 3032,2 Beds,1 Bath,1 Parking,,hamilton-vic,-37.773624,144.8809804
,,$630 per week,"2712/500 Elizabeth Street,",MELBOURNE VIC 3000,2 Beds,1 Bath,− Parking,,hamilton-vic,-37.7998626,144.9573647
,,$620 pw,"15 Leeward Drive,",TARNEIT VIC 3029,4 Beds,2 Baths,2 Parking,,hamilton-vic,-37.8612781,144.6469924
,,$800,"64/43 Hercules Street,",HAMILTON QLD 4007,2 Beds,2 Baths,1 Parking,,hamilton-vic,-27.4390971,153.0687411
,,$580 PER WEEK,"7 Lauradan Way,",WOLLERT VIC 3750,4 Beds,2 Baths,2 Parking,,hamilton-vic,-37.6023219,145.0074468
,,$510 pw,"41 Holman Crescent,",BACCHUS MARSH VIC 3340,4 Beds,2 Baths,2 Parking,,hamilton-vic,-37.7199,144.3727
,,$650,"C4301/1 Hamilton Crescent,",RYDE NSW 2112,1 Bed,1 Bath,2 Parking,,hamilton-vic,14.2766,46.8693
,,$525,"G11/110 Roberts Street,",WEST FOOTSCRAY VIC 3012,2 Beds,2 Baths,1 Parking,,hamilton-vic,-37.8302,144.8709
,,$550 per week,"11 Carina Court,",POINT COOK VIC 3030,4 Beds,2 Baths,− Parking,,hamilton-vic,-37.8923118,144.7242842
,,$490,"5 Joyce Place,",LAVINGTON NSW 2641,3 Beds,2 Baths,1 Parking,,hamilton-vic,-36.0414782,146.9224668
,,$210 weekly,"1/133 Raleigh Road,",MARIBYRNONG VIC 3032,1 Bed,1 Bath,− Parking,,hamilton-vic,-37.7690186,144.8863597
,,$445 per week,"7/1 Fiona Court,",ST KILDA VIC 3182,1 Bed,1 Bath,1 Parking,,hamilton-vic,-37.8637194,144.9878945
,,$800 per week,"1/5 Jaguar Dr,",CLAYTON VIC 3168,4 Beds,3 Baths,2 Parking,,hamilton-vic,-37.9266051,145.1318539
,,$650 per week Unfurnished,"1 Tuckett Street,",ALPHINGTON VIC 3078,3 Beds,1 Bath,2 Parking,,hamilton-vic,-37.7810256,145.0229956
,,$670 per week,"205/8 Sutherland Street,",MELBOURNE VIC 3000,2 Beds,2 Baths,− Parking,,hamilton-vic,-37.8110719,144.960791
,,"$450.00 per Week $1,955.00","39 Shillings Road,",MAMBOURIN VIC 3024,3 Beds,2 Baths,2 Parking,,hamilton-vic,-37.8887919,144.6021464
,,$500.00 Per Week,"971a Albany Highway,",EAST VICTORIA PARK WA 6101,1 Bed,1 Bath,2 Parking,,hamilton-vic,-31.9813744,115.9010123
,,$695 per week,"47a Wood Street,",SOUTH PLYMPTON SA 5038,3 Beds,2 Baths,2 Parking,,hamilton-vic,-34.9824814,138.5606354
,,Application approved,"3/2A Hamilton Street,",ALLAWAH NSW 2218,3 Beds,1 Bath,− Parking,,hamilton-vic,-33.9703958,151.118499
,,"$1,395 per week","21A Peel St,",KEW VIC 3101,4 Beds,3 Baths,2 Parking,380m²,hamilton-vic,-37.8057382,145.0328061
,,$570,"103/37c Harbour Road,",HAMILTON QLD 4007,1 Bed,1 Bath,1 Parking,,hamilton-vic,47.32178,8.05281
,,"$420 per week $1,825.00","24 Hensbergh Place,",SUNSHINE WEST VIC 3020,1 Bed,1 Bath,1 Parking,,hamilton-vic,-37.7953315,144.8005162
,,$650.00,"116A Cleary Street,",HAMILTON NSW 2303,3 Beds,1 Bath,− Parking,,hamilton-vic,-32.9211398,151.7494524
,,$620 PER WEEK,"11 Blunsdon Road,",WOLLERT VIC 3750,4 Beds,2 Baths,2 Parking,,hamilton-vic,-37.5960673,144.9926776
,,$460.00 Per Week,"21 Nivea Street,",MAMBOURIN VIC 3024,3 Beds,2 Baths,2 Parking,,hamilton-vic,-37.8895189,144.5990849
,,$380 per week,"16 Hamilton Court,",TAMWORTH NSW 2340,3 Beds,1 Bath,2 Parking,696m²,hamilton-vic,-31.1050271,150.8944512
,,$600,"10205/7 Wharf Street,",HAMILTON QLD 4007,2 Beds,1 Bath,1 Parking,,hamilton-vic,47.32178,8.05281
,,$600,"2 Ranni Place,",BONNIE BROOK VIC 3335,4 Beds,2 Baths,3 Parking,428m²,hamilton-vic,46.4194,14.6936
,,$700 weekly,"9 Glenview Rd,",DONCASTER EAST VIC 3109,3 Beds,2 Baths,2 Parking,,hamilton-vic,-37.7982746,145.1630683
,,$530 per week,"54 SOLITUDE CRESCENT,",POINT COOK VIC 3030,4 Beds,2 Baths,2 Parking,,hamilton-vic,-37.9045877,144.7181412
,,$1350 PER WEEK,"Townhouse 607/12-18 Parkside Circuit,",HAMILTON QLD 4007,3 Beds,2 Baths,2 Parking,,hamilton-vic,47.32178,8.05281
,,$740.00,"1307/408 Spencer Street,",WEST MELBOURNE VIC 3003,2 Beds,1 Bath,− Parking,,hamilton-vic,-37.8101,144.95
,,$780 per week,"2011/371 Little Lonsdale Street,",MELBOURNE VIC 3000,2 Beds,2 Baths,− Parking,,hamilton-vic,-37.8138183,144.9531186
,,$800.00,"902/408 Spencer Street,",WEST MELBOURNE VIC 3003,2 Beds,2 Baths,− Parking,,hamilton-vic,-37.8101,144.95
,,$650 per week,"1102/555 Swanston Street,",CARLTON VIC 3053,2 Beds,2 Baths,− Parking,,hamilton-vic,-37.8004,144.9684
,,$780,"41/37c Harbour Road,",HAMILTON QLD 4007,2 Beds,2 Baths,1 Parking,,hamilton-vic,47.32178,8.05281
,,"$1,750 pw","10 Mikado Street,",HAMILTON QLD 4007,4 Beds,2 Baths,2 Parking,,hamilton-vic,-27.4349526,153.0523918
,,$600,"62/43 Hercules Street,",HAMILTON QLD 4007,1 Bed,1 Bath,1 Parking,,hamilton-vic,-27.4390971,153.0687411
,,$420 Per Week,"345B High Street,",KANGAROO FLAT VIC 3555,3 Beds,2 Baths,2 Parking,,hamilton-vic,-36.8185709,144.2378341
,,$750.00,"309/408 Spencer Street,",WEST MELBOURNE VIC 3003,2 Beds,2 Baths,1 Parking,,hamilton-vic,-37.8101,144.95
,,$600,"14B Kinlock Avenue,",FERNDALE WA 6148,3 Beds,1 Bath,3 Parking,,hamilton-vic,-32.0314973,115.9311438
,,$770,"15/37C Harbour Rd,",HAMILTON QLD 4007,2 Beds,2 Baths,1 Parking,,hamilton-vic,47.32178,8.05281
,,$520,"22 Driftwood Street,",AINTREE VIC 3336,4 Beds,2 Baths,2 Parking,,hamilton-vic,-37.7152381,144.670721
,,"$1,550 per week","201/1 Wallace Avenue,",TOORAK VIC 3142,2 Beds,2 Baths,2 Parking,,hamilton-vic,-37.8407409,145.0072068
,,$750 per week,"133 Buchanan Drive,",WOODFORDE SA 5072,3 Beds,2 Baths,2 Parking,,hamilton-vic,-34.9069773,138.6854918
,,$550,"G11/110 Roberts Street,",WEST FOOTSCRAY VIC 3012,2 Beds,2 Baths,1 Parking,,hamilton-vic,-37.8302,144.8709
,,$600,"309/37c Harbour Road,",HAMILTON QLD 4007,1 Bed,1 Bath,1 Parking,,hamilton-vic,47.32178,8.05281
,,$550 per week,"10/949 Albany Highway,",EAST VICTORIA PARK WA 6101,2 Beds,1 Bath,1 Parking,,hamilton-vic,1.5,109.25
,,$585 per week,"10/135 Fitzroy Street,",ST KILDA VIC 3182,2 Beds,1 Bath,1 Parking,,hamilton-vic,-37.8613356,144.974858
,,"$1,150 PER WEEK","157 Hamilton Road,",FAIRFIELD NSW 2165,6 Beds,3 Baths,6 Parking,,hamilton-vic,-33.8724695,150.9377294
,,$670 Weekly,"4 Quickly Crescent,",HAMILTON HILL WA 6163,4 Beds,1 Bath,2 Parking,,hamilton-vic,-32.0891044,115.7914386
,,$650.00,"1707/408 Spencer Street,",WEST MELBOURNE VIC 3003,2 Beds,1 Bath,− Parking,,hamilton-vic,-37.8101,144.95
,,$640 per week,"20 Teak Street,",CAULFIELD VIC 3162,3 Beds,1 Bath,− Parking,318m²,hamilton-vic,-37.8924424,145.0277385
,,$900.00,"1903/408 Spencer Street,",WEST MELBOURNE VIC 3003,2 Beds,2 Baths,1 Parking,,hamilton-vic,-37.8101,144.95
,,$480 per week,"60 Edith Street,",TARNEIT VIC 3029,3 Beds,2 Baths,2 Parking,,hamilton-vic,-37.8481575,144.6405284
,,$570,"20/37 Harbour Road,",HAMILTON QLD 4007,1 Bed,1 Bath,1 Parking,,hamilton-vic,-27.4392253,153.0657574
,,$995 per week,"34 Bird Avenue,",NORTHCOTE VIC 3070,4 Beds,2 Baths,2 Parking,,hamilton-vic,-37.7619763,144.9920856
,,$700,"9/43 Hercules Street,",HAMILTON QLD 4007,2 Beds,2 Baths,1 Parking,,hamilton-vic,-27.4390971,153.0687411
,,$660.00,"1104/408 Spencer Street,",WEST MELBOURNE VIC 3003,2 Beds,1 Bath,− Parking,,hamilton-vic,-37.8101,144.95
,,$780,"2609/545 Station Street,",BOX HILL VIC 3128,2 Beds,2 Baths,1 Parking,,hamilton-vic,-37.8256,145.1232
,,$600 pw,"12 Clay Crescent,",ROCKBANK VIC 3335,5 Beds,3 Baths,2 Parking,,hamilton-vic,-37.7440829,144.6593622
,,$790.00,"1002/408 Spencer Street,",WEST MELBOURNE VIC 3003,2 Beds,2 Baths,− Parking,,hamilton-vic,-37.8101,144.95
,,$850 per week,"501/37B Harbour Rd,",HAMILTON QLD 4007,1 Bed,1 Bath,1 Parking,,hamilton-vic,47.32178,8.05281
,,$600,"30 Mainview Boulevard,",TRUGANINA VIC 3029,4 Beds,2 Baths,2 Parking,,hamilton-vic,-37.8394196,144.7340978
,,$570 per week Unfurnished Inc. bill,"2/510 Station Street,",BOX HILL VIC 3128,3 Beds,1 Bath,2 Parking,,hamilton-vic,-37.8283527,145.1218953
,,$290 per week,"41 Gillard St,",BURWOOD VIC 3125,1 Bed,1 Bath,− Parking,,hamilton-vic,-37.8554052,145.1140174
,,$1000 Per Week,"6203/138 Spencer Street,",MELBOURNE VIC 3004,2 Beds,2 Baths,− Parking,,hamilton-vic,-37.814,144.9633
,,$720 per week,"2206/639 Lonsdale Street,",MELBOURNE VIC 3000,2 Beds,2 Baths,− Parking,,hamilton-vic,-37.814,144.9633
,,$440 per week,"230 Gordon St,",FOOTSCRAY VIC 3011,3 Beds,1 Bath,2 Parking,,hamilton-vic,-37.8009835,144.8877397
,,$675 p.w,"23 Liege Avenue,",NOBLE PARK VIC 3174,3 Beds,2 Baths,1 Parking,,hamilton-vic,-37.9672835,145.1919102
,,$650 weekly,"1510/828 Whitehorse Rd,",BOX HILL VIC 3128,2 Beds,2 Baths,1 Parking,,hamilton-vic,-37.8256,145.1232
,,$830,"303/37c Harbour Road,",HAMILTON QLD 4007,2 Beds,2 Baths,1 Parking,,hamilton-vic,47.32178,8.05281
,,$720,"307/37c Harbour Road,",HAMILTON QLD 4007,2 Beds,2 Baths,1 Parking,,hamilton-vic,47.32178,8.05281
,,$205 Per Week,"72a Donald Street,",HAMILTON NSW 2303,5 Beds,2 Baths,− Parking,,hamilton-vic,-32.9190106,151.7424739
,,$550,"6 Garner Grove,",ROCKBANK VIC 3335,4 Beds,2 Baths,2 Parking,,hamilton-vic,-37.7344721,144.6512774
,,$800 per week,"28 Glenister Road,",HAMILTON HILL WA 6163,3 Beds,1 Bath,2 Parking,380m²,hamilton-vic,-32.0895077,115.7736143
,,$810,"11/37C Harbour Road,",HAMILTON QLD 4007,2 Beds,2 Baths,1 Parking,,hamilton-vic,47.32178,8.05281
,,$510,"19 HARWICH STREET,",ROCKBANK VIC 3335,4 Beds,2 Baths,2 Parking,,hamilton-vic,-37.7219059,144.640391
